[{"id":"9967315247875358282","title":"公共厕所","address":"上海市长宁区兴国路78号","tel":"","category":"基础设施:公共设施:公共厕所","type":0,"location":{"lat":31.20868,"lng":121.43584},"_distance":87.5,"ad_info":{"adcode":310105,"province":"上海市","city":"上海市","district":"长宁区"}},{"id":"2156230625473605637","title":"上海兴国丽笙宾馆洗手间","address":"上海市长宁区华山路与兴国路交叉口西南方向30米","tel":"","category":"基础设施:公共设施:公共厕所","type":0,"location":{"lat":31.21081,"lng":121.43511},"_distance":201.79,"ad_info":{"adcode":310105,"province":"上海市","city":"上海市","district":"长宁区"}},{"id":"8893262415036740087","title":"公共厕所","address":"上海市徐汇区高邮路68号东南方向70米","tel":"","category":"基础设施:公共设施:公共厕所","type":0,"location":{"lat":31.209203,"lng":121.437158},"_distance":206.82,"ad_info":{"adcode":310104,"province":"上海市","city":"上海市","district":"徐汇区"}},{"id":"11391261103845972825","title":"公共厕所","address":"上海市徐汇区高邮路59号附近","tel":"","category":"基础设施:公共设施:公共厕所","type":0,"location":{"lat":31.20947,"lng":121.437296},"_distance":134.16,"ad_info":{"adcode":310104,"province":"上海市","city":"上海市","district":"徐汇区"}},{"id":"17093549958049645123","title":"公共厕所","address":"上海市长宁区华山路1500号","tel":"","category":"基础设施:公共设施:公共厕所","type":0,"location":{"lat":31.20649,"lng":121.4325},"_distance":434.46,"ad_info":{"adcode":310105,"province":"上海市","city":"上海市","district":"长宁区"}},{"id":"585307594427039653","title":"公共厕所","address":"上海市长宁区华山路1328号正西方向140米","tel":"","category":"基础设施:公共设施:公共厕所","type":0,"location":{"lat":31.20876,"lng":121.43142},"_distance":436.66,"ad_info":{"adcode":310105,"province":"上海市","city":"上海市","district":"长宁区"}},{"id":"4545428708414917250","title":"公共厕所","address":"上海市长宁区新华路街道江苏路与昭化东路交叉口西南方向110米","tel":"","category":"基础设施:公共设施:公共厕所","type":0,"location":{"lat":31.21208,"lng":121.43299},"_distance":512.85,"ad_info":{"adcode":310105,"province":"上海市","city":"上海市","district":"长宁区"}},{"id":"15136580035268244105","title":"公共厕所","address":"上海市长宁区延安西路918-2临西南方向110米","tel":"","category":"基础设施:公共设施:公共厕所","type":0,"location":{"lat":31.212429,"lng":121.431621},"_distance":638.74,"ad_info":{"adcode":310105,"province":"上海市","city":"上海市","district":"长宁区"}},{"id":"15966118036933138453","title":"公共厕所","address":"上海市长宁区延安西路与昭化东路交叉口西南方向180米","tel":"","category":"基础设施:公共设施:公共厕所","type":0,"location":{"lat":31.211567,"lng":121.430956},"_distance":642.37,"ad_info":{"adcode":310105,"province":"上海市","city":"上海市","district":"长宁区"}},{"id":"11383599281619497177","title":"公共厕所","address":"上海市徐汇区高安路","tel":"","category":"基础设施:公共设施:公共厕所","type":0,"location":{"lat":31.207159,"lng":121.443469},"_distance":559.01,"ad_info":{"adcode":310104,"province":"上海市","city":"上海市","district":"徐汇区"}},{"id":"11900192525664324717","title":"无障碍洗手间","address":"上海市徐汇区淮海中路上海博爱医院南侧","tel":"","category":"基础设施:公共设施:公共厕所","type":0,"location":{"lat":31.208219,"lng":121.444408},"_distance":615.6,"ad_info":{"adcode":310104,"province":"上海市","city":"上海市","district":"徐汇区"}},{"id":"10722681750680550356","title":"无障碍洗手间(上海博爱医院)","address":"上海市徐汇区淮海中路1590弄3F","tel":"","category":"基础设施:公共设施:公共厕所","type":0,"location":{"lat":31.208959,"lng":121.444546},"_distance":623.26,"ad_info":{"adcode":310104,"province":"上海市","city":"上海市","district":"徐汇区"}},{"id":"14812644333872675474","title":"无障碍洗手间(上海博爱医院)","address":"上海市徐汇区淮海中路1590弄1F","tel":"","category":"基础设施:公共设施:公共厕所","type":0,"location":{"lat":31.208952,"lng":121.444591},"_distance":531.75,"ad_info":{"adcode":310104,"province":"上海市","city":"上海市","district":"徐汇区"}},{"id":"8003446390220617867","title":"无障碍洗手间(上海博爱医院)","address":"上海市徐汇区淮海中路1590弄5F","tel":"","category":"基础设施:公共设施:公共厕所","type":0,"location":{"lat":31.208988,"lng":121.444594},"_distance":532.45,"ad_info":{"adcode":310104,"province":"上海市","city":"上海市","district":"徐汇区"}},{"id":"7294968948137126049","title":"无障碍洗手间(上海博爱医院)","address":"上海市徐汇区淮海中路1590弄2F","tel":"","category":"基础设施:公共设施:公共厕所","type":0,"location":{"lat":31.208975,"lng":121.444595},"_distance":532.45,"ad_info":{"adcode":310104,"province":"上海市","city":"上海市","district":"徐汇区"}},{"id":"15003376798529029858","title":"无障碍洗手间(上海博爱医院)","address":"上海市徐汇区淮海中路1590弄4F","tel":"","category":"基础设施:公共设施:公共厕所","type":0,"location":{"lat":31.209002,"lng":121.444603},"_distance":438.01,"ad_info":{"adcode":310104,"province":"上海市","city":"上海市","district":"徐汇区"}},{"id":"13604785478741931715","title":"公共厕所","address":"上海市徐汇区五原路157号","tel":"","category":"基础设施:公共设施:公共厕所","type":0,"location":{"lat":31.212387,"lng":121.445912},"_distance":677.57,"ad_info":{"adcode":310104,"province":"上海市","city":"上海市","district":"徐汇区"}},{"id":"4516599254894419425","title":"无障碍洗手间(华山医院住院楼)","address":"上海市静安区乌鲁木齐中路12号6号楼2层","tel":"","category":"基础设施:公共设施:公共厕所","type":0,"location":{"lat":31.215349,"lng":121.443053},"_distance":764.22,"ad_info":{"adcode":310106,"province":"上海市","city":"上海市","district":"静安区"}},{"id":"3039199136760932372","title":"男洗手间","address":"上海市徐汇区安亭路与永嘉路交叉口西北方向110米","tel":"","category":"基础设施:公共设施:公共厕所","type":0,"location":{"lat":31.205045,"lng":121.44712},"_distance":730.16,"ad_info":{"adcode":310104,"province":"上海市","city":"上海市","district":"徐汇区"}},{"id":"17590863103218700909","title":"无障碍洗手间(华山医院住院楼)","address":"上海市静安区乌鲁木齐中路12号6号楼8层","tel":"","category":"基础设施:公共设施:公共厕所","type":0,"location":{"lat":31.215476,"lng":121.443093},"_distance":747.81,"ad_info":{"adcode":310106,"province":"上海市","city":"上海市","district":"静安区"}},{"id":"10382929438262925752","title":"无障碍洗手间(华山医院住院楼)","address":"上海市静安区乌鲁木齐中路12号6号楼7F","tel":"","category":"基础设施:公共设施:公共厕所","type":0,"location":{"lat":31.21548,"lng":121.443124},"_distance":749.21,"ad_info":{"adcode":310106,"province":"上海市","city":"上海市","district":"静安区"}},{"id":"916902636348993065","title":"公共厕所","address":"上海市徐汇区安亭路46号西北方向130米","tel":"","category":"基础设施:公共设施:公共厕所","type":0,"location":{"lat":31.203872,"lng":121.446202},"_distance":697.09,"ad_info":{"adcode":310104,"province":"上海市","city":"上海市","district":"徐汇区"}},{"id":"2675127302734307723","title":"无障碍洗手间(华山医院住院楼)","address":"上海市静安区乌鲁木齐中路12号6号楼9F","tel":"","category":"基础设施:公共设施:公共厕所","type":0,"location":{"lat":31.215481,"lng":121.443133},"_distance":729.45,"ad_info":{"adcode":310106,"province":"上海市","city":"上海市","district":"静安区"}},{"id":"1326909157499986888","title":"无障碍洗手间(华山医院门诊楼)","address":"上海市静安区乌鲁木齐中路12号门诊楼14F","tel":"","category":"基础设施:公共设施:公共厕所","type":0,"location":{"lat":31.215481,"lng":121.443139},"_distance":729.55,"ad_info":{"adcode":310106,"province":"上海市","city":"上海市","district":"静安区"}},{"id":"1982321142824194154","title":"公共厕所","address":"上海市徐汇区淮海中路1329正南方向180米","tel":"","category":"基础设施:公共设施:公共厕所","type":0,"location":{"lat":31.21032,"lng":121.450118},"_distance":693.46,"ad_info":{"adcode":310104,"province":"上海市","city":"上海市","district":"徐汇区"}},{"id":"3086719075476828933","title":"无障碍洗手间(华山医院住院楼)","address":"上海市静安区乌鲁木齐中路12号6号楼23F","tel":"","category":"基础设施:公共设施:公共厕所","type":0,"location":{"lat":31.215484,"lng":121.443136},"_distance":722.02,"ad_info":{"adcode":310106,"province":"上海市","city":"上海市","district":"静安区"}},{"id":"10240221625189076607","title":"公共厕所","address":"上海市徐汇区乌鲁木齐南路148号","tel":"","category":"基础设施:公共设施:公共厕所","type":0,"location":{"lat":31.204522,"lng":121.448808},"_distance":676.74,"ad_info":{"adcode":310104,"province":"上海市","city":"上海市","district":"徐汇区"}},{"id":"14026152370617532147","title":"女洗手间","address":"上海市徐汇区地铁1号线7号线换乘站常熟路地铁站常熟路站B2","tel":"","category":"基础设施:公共设施:公共厕所","type":0,"location":{"lat":31.213347,"lng":121.449388},"_distance":705.08,"ad_info":{"adcode":310104,"province":"上海市","city":"上海市","district":"徐汇区"}},{"id":"11803566848755835356","title":"安亭别墅·花园酒店洗手间","address":"上海市徐汇区安亭路与永嘉路交叉口西南方向100米","tel":"","category":"基础设施:公共设施:公共厕所","type":0,"location":{"lat":31.203222,"lng":121.447184},"_distance":710.9,"ad_info":{"adcode":310104,"province":"上海市","city":"上海市","district":"徐汇区"}},{"id":"14645125017910399729","title":"公共厕所","address":"上海市徐汇区淮海中路1305号","tel":"","category":"基础设施:公共设施:公共厕所","type":0,"location":{"lat":31.212924,"lng":121.450344},"_distance":670.29,"ad_info":{"adcode":310104,"province":"上海市","city":"上海市","district":"徐汇区"}},{"id":"2975673435096202702","title":"无障碍洗手间","address":"上海市徐汇区华亭路与淮海中路交叉口西南方向40米","tel":"","category":"基础设施:公共设施:公共厕所","type":0,"location":{"lat":31.213263,"lng":121.450471},"_distance":704.58,"ad_info":{"adcode":310104,"province":"上海市","city":"上海市","district":"徐汇区"}},{"id":"14945290656245790869","title":"公共厕所","address":"上海市徐汇区天平路街道岳阳路47号附近","tel":"","category":"基础设施:公共设施:公共厕所","type":0,"location":{"lat":31.209349,"lng":121.452932},"_distance":661.43,"ad_info":{"adcode":310104,"province":"上海市","city":"上海市","district":"徐汇区"}},{"id":"6272988756333955004","title":"公共厕所","address":"上海市徐汇区乌鲁木齐南路178号","tel":"","category":"基础设施:公共设施:公共厕所","type":0,"location":{"lat":31.203066,"lng":121.448886},"_distance":715.34,"ad_info":{"adcode":310104,"province":"上海市","city":"上海市","district":"徐汇区"}},{"id":"4970652729623138139","title":"无障碍洗手间(华山医院住院楼)","address":"上海市静安区乌鲁木齐中路12号6号楼15层","tel":"","category":"基础设施:公共设施:公共厕所","type":0,"location":{"lat":31.215486,"lng":121.443155},"_distance":809.61,"ad_info":{"adcode":310106,"province":"上海市","city":"上海市","district":"静安区"}},{"id":"7307424302464419397","title":"公共厕所","address":"上海市徐汇区建国西路与太原路交叉口东北方向170米","tel":"","category":"基础设施:公共设施:公共厕所","type":0,"location":{"lat":31.20584,"lng":121.456065},"_distance":844.49,"ad_info":{"adcode":310104,"province":"上海市","city":"上海市","district":"徐汇区"}},{"id":"18232558743747104100","title":"汾阳花园酒店洗手间","address":"上海市徐汇区汾阳路45号","tel":"","category":"基础设施:公共设施:公共厕所","type":0,"location":{"lat":31.213116,"lng":121.455801},"_distance":793.57,"ad_info":{"adcode":310104,"province":"上海市","city":"上海市","district":"徐汇区"}},{"id":"8880859119000893061","title":"公共厕所","address":"上海市徐汇区襄阳南路与永康路交叉口东南方向80米","tel":"","category":"基础设施:公共设施:公共厕所","type":0,"location":{"lat":31.210048,"lng":121.457983},"_distance":675.54,"ad_info":{"adcode":310104,"province":"上海市","city":"上海市","district":"徐汇区"}},{"id":"18327913046473609837","title":"无障碍洗手间(嘉豪淮海国际酒店)","address":"上海市徐汇区汾阳路1号7F","tel":"","category":"基础设施:公共设施:公共厕所","type":0,"location":{"lat":31.214496,"lng":121.455965},"_distance":718.73,"ad_info":{"adcode":310104,"province":"上海市","city":"上海市","district":"徐汇区"}},{"id":"14266559277230529978","title":"无障碍洗手间(嘉豪淮海国际酒店)","address":"上海市徐汇区汾阳路1号13F","tel":"","category":"基础设施:公共设施:公共厕所","type":0,"location":{"lat":31.214539,"lng":121.455943},"_distance":721.57,"ad_info":{"adcode":310104,"province":"上海市","city":"上海市","district":"徐汇区"}},{"id":"11779219683183981569","title":"无障碍洗手间(嘉豪淮海国际酒店)","address":"上海市徐汇区汾阳路1号12F","tel":"","category":"基础设施:公共设施:公共厕所","type":0,"location":{"lat":31.2145,"lng":121.456045},"_distance":723.31,"ad_info":{"adcode":310104,"province":"上海市","city":"上海市","district":"徐汇区"}},{"id":"16486877850054826519","title":"无障碍洗手间(嘉豪淮海国际酒店)","address":"上海市徐汇区汾阳路1号9F","tel":"","category":"基础设施:公共设施:公共厕所","type":0,"location":{"lat":31.214536,"lng":121.456004},"_distance":679.27,"ad_info":{"adcode":310104,"province":"上海市","city":"上海市","district":"徐汇区"}},{"id":"13410939770157290082","title":"无障碍洗手间(嘉豪淮海国际酒店)","address":"上海市徐汇区汾阳路1号1层","tel":"","category":"基础设施:公共设施:公共厕所","type":0,"location":{"lat":31.214564,"lng":121.455937},"_distance":679.56,"ad_info":{"adcode":310104,"province":"上海市","city":"上海市","district":"徐汇区"}},{"id":"302959608558309600","title":"无障碍洗手间(嘉豪淮海国际酒店)","address":"上海市徐汇区汾阳路1号2F","tel":"","category":"基础设施:公共设施:公共厕所","type":0,"location":{"lat":31.214575,"lng":121.455956},"_distance":681.32,"ad_info":{"adcode":310104,"province":"上海市","city":"上海市","district":"徐汇区"}},{"id":"5209623847097666933","title":"无障碍洗手间(嘉豪淮海国际酒店)","address":"上海市徐汇区汾阳路1号10F","tel":"","category":"基础设施:公共设施:公共厕所","type":0,"location":{"lat":31.214541,"lng":121.456052},"_distance":647.01,"ad_info":{"adcode":310104,"province":"上海市","city":"上海市","district":"徐汇区"}},{"id":"17780786251690272025","title":"无障碍洗手间(嘉豪淮海国际酒店)","address":"上海市徐汇区汾阳路1号5F","tel":"","category":"基础设施:公共设施:公共厕所","type":0,"location":{"lat":31.214548,"lng":121.456038},"_distance":647.39,"ad_info":{"adcode":310104,"province":"上海市","city":"上海市","district":"徐汇区"}},{"id":"6294082350895574148","title":"无障碍洗手间(嘉豪淮海国际酒店)","address":"上海市徐汇区汾阳路1号11F","tel":"","category":"基础设施:公共设施:公共厕所","type":0,"location":{"lat":31.214572,"lng":121.455986},"_distance":648.52,"ad_info":{"adcode":310104,"province":"上海市","city":"上海市","district":"徐汇区"}},{"id":"12810081409611781318","title":"上海龙之梦大酒店洗手间","address":"上海市长宁区番禺路与延安西路交叉口东北方向120米","tel":"","category":"基础设施:公共设施:公共厕所","type":0,"location":{"lat":31.211036,"lng":121.430461},"_distance":447.36,"ad_info":{"adcode":310105,"province":"上海市","city":"上海市","district":"长宁区"}},{"id":"2588654661596605908","title":"公共厕所","address":"上海市长宁区延安西路719号2楼","tel":"","category":"基础设施:公共设施:公共厕所","type":0,"location":{"lat":31.214425,"lng":121.434096},"_distance":500.2,"ad_info":{"adcode":310105,"province":"上海市","city":"上海市","district":"长宁区"}},{"id":"15457837739456867027","title":"公共厕所","address":"上海市长宁区番禺路与云阳路交叉口西南方向20米","tel":"","category":"基础设施:公共设施:公共厕所","type":0,"location":{"lat":31.20664,"lng":121.42911},"_distance":674,"ad_info":{"adcode":310105,"province":"上海市","city":"上海市","district":"长宁区"}},{"id":"12626101158736796931","title":"公共厕所","address":"上海市长宁区番禺路","tel":"","category":"基础设施:公共设施:公共厕所","type":0,"location":{"lat":31.205279,"lng":121.430295},"_distance":755.38,"ad_info":{"adcode":310105,"province":"上海市","city":"上海市","district":"长宁区"}},{"id":"4106554415062168293","title":"公共厕所(上生新所19号楼)","address":"上海市长宁区延安西路1262号19号楼一楼","tel":"","category":"基础设施:公共设施:公共厕所","type":0,"location":{"lat":31.208463,"lng":121.428147},"_distance":766.75,"ad_info":{"adcode":310105,"province":"上海市","city":"上海市","district":"长宁区"}},{"id":"4754812818525470997","title":"公共厕所","address":"上海市长宁区延安西路1221","tel":"","category":"基础设施:公共设施:公共厕所","type":0,"location":{"lat":31.21112,"lng":121.427839},"_distance":786.47,"ad_info":{"adcode":310105,"province":"上海市","city":"上海市","district":"长宁区"}},{"id":"13063448381136900450","title":"无障碍洗手间(华山医院住院楼)","address":"上海市静安区乌鲁木齐中路12号6号楼19层","tel":"","category":"基础设施:公共设施:公共厕所","type":0,"location":{"lat":31.21549,"lng":121.443156},"_distance":680.93,"ad_info":{"adcode":310106,"province":"上海市","city":"上海市","district":"静安区"}},{"id":"4547957413826743319","title":"无障碍洗手间(华山医院住院楼)","address":"上海市静安区乌鲁木齐中路12号6号楼6层","tel":"","category":"基础设施:公共设施:公共厕所","type":0,"location":{"lat":31.215501,"lng":121.443146},"_distance":622.17,"ad_info":{"adcode":310106,"province":"上海市","city":"上海市","district":"静安区"}},{"id":"15455571863213793356","title":"无障碍洗手间(华山医院住院楼)","address":"上海市静安区乌鲁木齐中路12号6号楼12层","tel":"","category":"基础设施:公共设施:公共厕所","type":0,"location":{"lat":31.21551,"lng":121.443145},"_distance":613.56,"ad_info":{"adcode":310106,"province":"上海市","city":"上海市","district":"静安区"}},{"id":"16388416223623229022","title":"无障碍洗手间(华山医院住院楼)","address":"上海市静安区乌鲁木齐中路12号6号楼21F","tel":"","category":"基础设施:公共设施:公共厕所","type":0,"location":{"lat":31.215515,"lng":121.443113},"_distance":619.8,"ad_info":{"adcode":310106,"province":"上海市","city":"上海市","district":"静安区"}},{"id":"14519203102054905858","title":"东湖宾馆E座洗手间","address":"上海市徐汇区东湖路与淮海中路交叉口西南方向180米","tel":"","category":"基础设施:公共设施:公共厕所","type":0,"location":{"lat":31.2154,"lng":121.4542},"_distance":779.08,"ad_info":{"adcode":310104,"province":"上海市","city":"上海市","district":"徐汇区"}},{"id":"764080596090589315","title":"无障碍洗手间(嘉豪淮海国际酒店)","address":"上海市徐汇区汾阳路1号4层","tel":"","category":"基础设施:公共设施:公共厕所","type":0,"location":{"lat":31.214569,"lng":121.456009},"_distance":635.79,"ad_info":{"adcode":310104,"province":"上海市","city":"上海市","district":"徐汇区"}},{"id":"9580244544755730277","title":"无障碍洗手间(嘉豪淮海国际酒店)","address":"上海市徐汇区汾阳路1号6层","tel":"","category":"基础设施:公共设施:公共厕所","type":0,"location":{"lat":31.214575,"lng":121.45601},"_distance":636.3,"ad_info":{"adcode":310104,"province":"上海市","city":"上海市","district":"徐汇区"}},{"id":"3862961558977861463","title":"无障碍洗手间(嘉豪淮海国际酒店)","address":"上海市徐汇区汾阳路1号8层","tel":"","category":"基础设施:公共设施:公共厕所","type":0,"location":{"lat":31.214576,"lng":121.456012},"_distance":636.47,"ad_info":{"adcode":310104,"province":"上海市","city":"上海市","district":"徐汇区"}},{"id":"14528836691943607229","title":"无障碍洗手间(嘉豪淮海国际酒店)","address":"上海市徐汇区汾阳路1号3F","tel":"","category":"基础设施:公共设施:公共厕所","type":0,"location":{"lat":31.214539,"lng":121.456119},"_distance":543.92,"ad_info":{"adcode":310104,"province":"上海市","city":"上海市","district":"徐汇区"}},{"id":"15079052034403877167","title":"上海日航饭店洗手间","address":"上海市长宁区延安西路与镇宁路交叉口西北方向40米","tel":"","category":"基础设施:公共设施:公共厕所","type":0,"location":{"lat":31.21759,"lng":121.437083},"_distance":759.91,"ad_info":{"adcode":310105,"province":"上海市","city":"上海市","district":"长宁区"}},{"id":"8104986922285645610","title":"公共厕所","address":"上海市长宁区昭化路80-108号附近","tel":"","category":"基础设施:公共设施:公共厕所","type":0,"location":{"lat":31.212082,"lng":121.426694},"_distance":799.41,"ad_info":{"adcode":310105,"province":"上海市","city":"上海市","district":"长宁区"}},{"id":"3207092763733541182","title":"上海美丽园大酒店洗手间","address":"上海市静安区延安西路396号","tel":"","category":"基础设施:公共设施:公共厕所","type":0,"location":{"lat":31.218052,"lng":121.438129},"_distance":839.56,"ad_info":{"adcode":310106,"province":"上海市","city":"上海市","district":"静安区"}},{"id":"5078687912001681441","title":"无障碍洗手间(华山医院住院楼)","address":"上海市静安区乌鲁木齐中路12号6号楼20F","tel":"","category":"基础设施:公共设施:公共厕所","type":0,"location":{"lat":31.215524,"lng":121.443082},"_distance":636.13,"ad_info":{"adcode":310106,"province":"上海市","city":"上海市","district":"静安区"}},{"id":"10698282693469101543","title":"无障碍洗手间(华山医院住院楼)","address":"上海市静安区乌鲁木齐中路12号6号楼10层","tel":"","category":"基础设施:公共设施:公共厕所","type":0,"location":{"lat":31.215524,"lng":121.443172},"_distance":509.82,"ad_info":{"adcode":310106,"province":"上海市","city":"上海市","district":"静安区"}},{"id":"6430177223237546829","title":"舜元天地男洗手间","address":"上海市长宁区江苏路与愚园路交叉口西南方向70米","tel":"","category":"基础设施:公共设施:公共厕所","type":0,"location":{"lat":31.218677,"lng":121.430852},"_distance":841.5,"ad_info":{"adcode":310105,"province":"上海市","city":"上海市","district":"长宁区"}},{"id":"14060694021309462071","title":"无障碍洗手间(华山医院住院楼)","address":"上海市静安区乌鲁木齐中路12号6号楼24F","tel":"","category":"基础设施:公共设施:公共厕所","type":0,"location":{"lat":31.215524,"lng":121.44309},"_distance":781.2,"ad_info":{"adcode":310106,"province":"上海市","city":"上海市","district":"静安区"}},{"id":"15578896505462992362","title":"无障碍洗手间(华山医院住院楼)","address":"上海市静安区乌鲁木齐中路12号6号楼18F","tel":"","category":"基础设施:公共设施:公共厕所","type":0,"location":{"lat":31.215531,"lng":121.443128},"_distance":555.77,"ad_info":{"adcode":310106,"province":"上海市","city":"上海市","district":"静安区"}},{"id":"14855521729674644174","title":"无障碍洗手间(华山医院急诊楼)","address":"上海市静安区乌鲁木齐中路12号急诊楼5F","tel":"","category":"基础设施:公共设施:公共厕所","type":0,"location":{"lat":31.215953,"lng":121.442857},"_distance":517.23,"ad_info":{"adcode":310106,"province":"上海市","city":"上海市","district":"静安区"}},{"id":"6685737146434574585","title":"无障碍洗手间(华山医院住院楼)","address":"上海市静安区乌鲁木齐中路12号2号楼18F","tel":"","category":"基础设施:公共设施:公共厕所","type":0,"location":{"lat":31.215983,"lng":121.442858},"_distance":519.95,"ad_info":{"adcode":310106,"province":"上海市","city":"上海市","district":"静安区"}},{"id":"1100663506699040499","title":"无障碍洗手间(华山医院门诊楼)","address":"上海市静安区乌鲁木齐中路12号门诊楼15F","tel":"","category":"基础设施:公共设施:公共厕所","type":0,"location":{"lat":31.215985,"lng":121.442856},"_distance":477.38,"ad_info":{"adcode":310106,"province":"上海市","city":"上海市","district":"静安区"}},{"id":"13446712215694108820","title":"公共厕所","address":"上海市徐汇区东湖路7号正东方向51米","tel":"","category":"基础设施:公共设施:公共厕所","type":0,"location":{"lat":31.215614,"lng":121.455417},"_distance":424.2,"ad_info":{"adcode":310104,"province":"上海市","city":"上海市","district":"徐汇区"}},{"id":"3818102325023409598","title":"无障碍洗手间(华东医院门诊)","address":"上海市静安区延安西路221号门诊楼16F","tel":"","category":"基础设施:公共设施:公共厕所","type":0,"location":{"lat":31.218612,"lng":121.440259},"_distance":801.03,"ad_info":{"adcode":310106,"province":"上海市","city":"上海市","district":"静安区"}},{"id":"8579291262366165108","title":"无障碍洗手间(华东医院门诊)","address":"上海市静安区延安西路221号门诊楼18F","tel":"","category":"基础设施:公共设施:公共厕所","type":0,"location":{"lat":31.218613,"lng":121.440277},"_distance":801.94,"ad_info":{"adcode":310106,"province":"上海市","city":"上海市","district":"静安区"}},{"id":"8429498278587455517","title":"无障碍洗手间(华东医院门诊)","address":"上海市静安区延安西路221号门诊楼1F","tel":"","category":"基础设施:公共设施:公共厕所","type":0,"location":{"lat":31.218613,"lng":121.44031},"_distance":803.76,"ad_info":{"adcode":310106,"province":"上海市","city":"上海市","district":"静安区"}},{"id":"11905263393494713089","title":"无障碍洗手间(华山医院住院楼)","address":"上海市静安区乌鲁木齐中路12号2号楼22F","tel":"","category":"基础设施:公共设施:公共厕所","type":0,"location":{"lat":31.215963,"lng":121.442919},"_distance":431.11,"ad_info":{"adcode":310106,"province":"上海市","city":"上海市","district":"静安区"}},{"id":"5276334525913263134","title":"无障碍洗手间(华山医院住院楼)","address":"上海市静安区乌鲁木齐中路12号2号楼11层","tel":"","category":"基础设施:公共设施:公共厕所","type":0,"location":{"lat":31.216005,"lng":121.442923},"_distance":435.16,"ad_info":{"adcode":310106,"province":"上海市","city":"上海市","district":"静安区"}},{"id":"12039382534025373262","title":"无障碍洗手间(华山医院住院楼)","address":"上海市静安区长乐路与乌鲁木齐中路交叉口西北方向100米","tel":"","category":"基础设施:公共设施:公共厕所","type":0,"location":{"lat":31.21605,"lng":121.44351},"_distance":342.68,"ad_info":{"adcode":310106,"province":"上海市","city":"上海市","district":"静安区"}},{"id":"6280473832112864680","title":"无障碍洗手间(华山医院住院楼)","address":"上海市静安区长乐路与乌鲁木齐中路交叉口西北方向110米","tel":"","category":"基础设施:公共设施:公共厕所","type":0,"location":{"lat":31.216023,"lng":121.443279},"_distance":343.54,"ad_info":{"adcode":310106,"province":"上海市","city":"上海市","district":"静安区"}},{"id":"2637396570134906699","title":"东湖宾馆B座洗手间","address":"上海市徐汇区东湖路与淮海中路交叉口西北方向80米","tel":"","category":"基础设施:公共设施:公共厕所","type":0,"location":{"lat":31.215937,"lng":121.455378},"_distance":397.42,"ad_info":{"adcode":310104,"province":"上海市","city":"上海市","district":"徐汇区"}},{"id":"13980329212396789521","title":"公共厕所","address":"上海市徐汇区淮海中路","tel":"","category":"基础设施:公共设施:公共厕所","type":0,"location":{"lat":31.215821,"lng":121.455818},"_distance":358.47,"ad_info":{"adcode":310104,"province":"上海市","city":"上海市","district":"徐汇区"}},{"id":"4599950779568874477","title":"无障碍洗手间(华东医院急诊)","address":"上海市静安区延安西路221号急诊楼4F","tel":"","category":"基础设施:公共设施:公共厕所","type":0,"location":{"lat":31.218646,"lng":121.440359},"_distance":726.66,"ad_info":{"adcode":310106,"province":"上海市","city":"上海市","district":"静安区"}},{"id":"15724750119551712837","title":"无障碍洗手间(华东医院)","address":"上海市静安区延安西路221号8号楼3F","tel":"","category":"基础设施:公共设施:公共厕所","type":0,"location":{"lat":31.218414,"lng":121.44065},"_distance":728.75,"ad_info":{"adcode":310106,"province":"上海市","city":"上海市","district":"静安区"}},{"id":"9000247699765864513","title":"无障碍洗手间(华东医院)","address":"上海市静安区延安西路221号8号楼9F","tel":"","category":"基础设施:公共设施:公共厕所","type":0,"location":{"lat":31.218389,"lng":121.440686},"_distance":729.58,"ad_info":{"adcode":310106,"province":"上海市","city":"上海市","district":"静安区"}},{"id":"8768850782356857953","title":"无障碍洗手间(华东医院门诊)","address":"上海市静安区延安西路221号门诊楼5F","tel":"","category":"基础设施:公共设施:公共厕所","type":0,"location":{"lat":31.218392,"lng":121.440703},"_distance":663.13,"ad_info":{"adcode":310106,"province":"上海市","city":"上海市","district":"静安区"}},{"id":"9133541364796837859","title":"无障碍洗手间(华东医院门诊)","address":"上海市静安区延安西路221号门诊楼2F","tel":"","category":"基础设施:公共设施:公共厕所","type":0,"location":{"lat":31.218419,"lng":121.440676},"_distance":663.37,"ad_info":{"adcode":310106,"province":"上海市","city":"上海市","district":"静安区"}},{"id":"7781461530897268492","title":"无障碍洗手间(华东医院门诊)","address":"上海市静安区延安西路221号门诊楼10层","tel":"","category":"基础设施:公共设施:公共厕所","type":0,"location":{"lat":31.218395,"lng":121.440726},"_distance":664.91,"ad_info":{"adcode":310106,"province":"上海市","city":"上海市","district":"静安区"}},{"id":"14949776822970772801","title":"公共厕所","address":"上海市静安区华山路与乌鲁木齐北路交叉口西南方向130米","tel":"","category":"基础设施:公共设施:公共厕所","type":0,"location":{"lat":31.216137,"lng":121.443175},"_distance":294.43,"ad_info":{"adcode":310106,"province":"上海市","city":"上海市","district":"静安区"}},{"id":"12214175133265869072","title":"锦江静安宾馆洗手间","address":"上海市静安区华山路370号(近延安中路乌鲁木齐路)","tel":"","category":"基础设施:公共设施:公共厕所","type":0,"location":{"lat":31.217917,"lng":121.445532},"_distance":495.03,"ad_info":{"adcode":310106,"province":"上海市","city":"上海市","district":"静安区"}},{"id":"10390898356514749521","title":"女洗手间(环贸iapm)","address":"上海市徐汇区襄阳北路与襄阳南路交叉口东南方向80米","tel":"","category":"基础设施:公共设施:公共厕所","type":0,"location":{"lat":31.215253,"lng":121.457106},"_distance":326.88,"ad_info":{"adcode":310104,"province":"上海市","city":"上海市","district":"徐汇区"}},{"id":"17514763671184481364","title":"无障碍洗手间(环贸iapm)","address":"上海市徐汇区淮海中路与襄阳南路交叉口东南方向50米","tel":"","category":"基础设施:公共设施:公共厕所","type":0,"location":{"lat":31.215363,"lng":121.457144},"_distance":335.46,"ad_info":{"adcode":310104,"province":"上海市","city":"上海市","district":"徐汇区"}},{"id":"7574784456700727086","title":"无障碍洗手间(华东医院门诊)","address":"上海市静安区延安西路221号门诊楼17F","tel":"","category":"基础设施:公共设施:公共厕所","type":0,"location":{"lat":31.218615,"lng":121.44045},"_distance":656.96,"ad_info":{"adcode":310106,"province":"上海市","city":"上海市","district":"静安区"}},{"id":"1185164375721194431","title":"无障碍洗手间(华东医院2号楼)","address":"上海市静安区延安西路221号2号楼6F","tel":"","category":"基础设施:公共设施:公共厕所","type":0,"location":{"lat":31.218428,"lng":121.440688},"_distance":662.7,"ad_info":{"adcode":310106,"province":"上海市","city":"上海市","district":"静安区"}},{"id":"3988573775751237813","title":"无障碍洗手间(华东医院门诊)","address":"上海市静安区延安西路221号门诊楼7F","tel":"","category":"基础设施:公共设施:公共厕所","type":0,"location":{"lat":31.218424,"lng":121.440704},"_distance":588.3,"ad_info":{"adcode":310106,"province":"上海市","city":"上海市","district":"静安区"}},{"id":"8370263567381861526","title":"无障碍洗手间(华东医院)","address":"上海市静安区延安西路221号8号楼8F","tel":"","category":"基础设施:公共设施:公共厕所","type":0,"location":{"lat":31.218399,"lng":121.440769},"_distance":590.96,"ad_info":{"adcode":310106,"province":"上海市","city":"上海市","district":"静安区"}},{"id":"16953338042855637787","title":"无障碍洗手间(华东医院门诊)","address":"上海市静安区延安西路221号门诊楼13F","tel":"","category":"基础设施:公共设施:公共厕所","type":0,"location":{"lat":31.218385,"lng":121.440829},"_distance":594.49,"ad_info":{"adcode":310106,"province":"上海市","city":"上海市","district":"静安区"}},{"id":"7237183753614118158","title":"无障碍洗手间(华东医院门诊)","address":"上海市静安区延安西路221号门诊楼15F","tel":"","category":"基础设施:公共设施:公共厕所","type":0,"location":{"lat":31.218382,"lng":121.440959},"_distance":532.75,"ad_info":{"adcode":310106,"province":"上海市","city":"上海市","district":"静安区"}},{"id":"16432123461568570781","title":"无障碍公共厕所(华东医院2号楼)","address":"上海市静安区延安西路221号1号楼","tel":"","category":"基础设施:公共设施:公共厕所","type":0,"location":{"lat":31.21817,"lng":121.441292},"_distance":471.73,"ad_info":{"adcode":310106,"province":"上海市","city":"上海市","district":"静安区"}},{"id":"2055009912193080914","title":"无障碍洗手间(华东医院)","address":"上海市静安区延安西路221号9号楼4F","tel":"","category":"基础设施:公共设施:公共厕所","type":0,"location":{"lat":31.218407,"lng":121.44097},"_distance":472.9,"ad_info":{"adcode":310106,"province":"上海市","city":"上海市","district":"静安区"}},{"id":"5278923035325756799","title":"公共厕所复旦大学附属华山医院门诊楼","address":"上海市静安区华山路与乌鲁木齐北路交叉口西南方向90米","tel":"","category":"基础设施:公共设施:公共厕所","type":0,"location":{"lat":31.216518,"lng":121.442706},"_distance":390.72,"ad_info":{"adcode":310106,"province":"上海市","city":"上海市","district":"静安区"}},{"id":"6188946850371860870","title":"男洗手间复旦大学附属华山医院门诊楼","address":"上海市静安区华山路与乌鲁木齐北路交叉口西南方向110米","tel":"","category":"基础设施:公共设施:公共厕所","type":0,"location":{"lat":31.216547,"lng":121.442771},"_distance":397.99,"ad_info":{"adcode":310106,"province":"上海市","city":"上海市","district":"静安区"}},{"id":"3399721234992669352","title":"女洗手间复旦大学附属华山医院门诊楼","address":"上海市静安区乌鲁木齐中路12号复旦大学附属华山医院门诊楼3F层","tel":"","category":"基础设施:公共设施:公共厕所","type":0,"location":{"lat":31.216522,"lng":121.443337},"_distance":304.9,"ad_info":{"adcode":310106,"province":"上海市","city":"上海市","district":"静安区"}},{"id":"3150630946994951293","title":"无障碍公共厕所(华东医院急诊)","address":"上海市静安区延安西路221号急诊楼","tel":"","category":"基础设施:公共设施:公共厕所","type":0,"location":{"lat":31.218937,"lng":121.440545},"_distance":542.5,"ad_info":{"adcode":310106,"province":"上海市","city":"上海市","district":"静安区"}},{"id":"3281658101349178277","title":"无障碍洗手间(华东医院门诊)","address":"上海市静安区延安西路221号门诊楼14F","tel":"","category":"基础设施:公共设施:公共厕所","type":0,"location":{"lat":31.218445,"lng":121.440997},"_distance":467.92,"ad_info":{"adcode":310106,"province":"上海市","city":"上海市","district":"静安区"}},{"id":"1964246581855904196","title":"无障碍洗手间(华东医院门诊)","address":"上海市静安区延安西路221号门诊楼12F","tel":"","category":"基础设施:公共设施:公共厕所","type":0,"location":{"lat":31.218437,"lng":121.441005},"_distance":393.84,"ad_info":{"adcode":310106,"province":"上海市","city":"上海市","district":"静安区"}},{"id":"11237334496687766755","title":"女洗手间复旦大学附属华山医院门诊楼","address":"上海市静安区华山路与乌鲁木齐北路交叉口西南方向110米","tel":"","category":"基础设施:公共设施:公共厕所","type":0,"location":{"lat":31.216574,"lng":121.442765},"_distance":270.59,"ad_info":{"adcode":310106,"province":"上海市","city":"上海市","district":"静安区"}},{"id":"4755507981781128275","title":"无障碍洗手间(华山医院住院楼)","address":"上海市静安区乌鲁木齐中路12号2号楼23F","tel":"","category":"基础设施:公共设施:公共厕所","type":0,"location":{"lat":31.216478,"lng":121.442818},"_distance":273.27,"ad_info":{"adcode":310106,"province":"上海市","city":"上海市","district":"静安区"}},{"id":"5039699483368161147","title":"无障碍洗手间(华山医院住院楼)","address":"上海市静安区乌鲁木齐中路12号2号楼20F","tel":"","category":"基础设施:公共设施:公共厕所","type":0,"location":{"lat":31.21648,"lng":121.442818},"_distance":273.31,"ad_info":{"adcode":310106,"province":"上海市","city":"上海市","district":"静安区"}},{"id":"2646753698082639299","title":"女洗手间复旦大学附属华山医院门诊楼","address":"上海市静安区华山路与乌鲁木齐北路交叉口西南方向90米","tel":"","category":"基础设施:公共设施:公共厕所","type":0,"location":{"lat":31.21667,"lng":121.443011},"_distance":205.05,"ad_info":{"adcode":310106,"province":"上海市","city":"上海市","district":"静安区"}},{"id":"1618919321246272676","title":"女洗手间复旦大学附属华山医院门诊楼","address":"上海市静安区乌鲁木齐中路12号复旦大学附属华山医院门诊楼2F层","tel":"","category":"基础设施:公共设施:公共厕所","type":0,"location":{"lat":31.216669,"lng":121.443007},"_distance":205.05,"ad_info":{"adcode":310106,"province":"上海市","city":"上海市","district":"静安区"}},{"id":"6413645638028845221","title":"女洗手间复旦大学附属华山医院门诊楼","address":"上海市静安区乌鲁木齐中路12号复旦大学附属华山医院门诊楼6F层","tel":"","category":"基础设施:公共设施:公共厕所","type":0,"location":{"lat":31.216669,"lng":121.443008},"_distance":205.05,"ad_info":{"adcode":310106,"province":"上海市","city":"上海市","district":"静安区"}},{"id":"13586067885726719903","title":"男洗手间复旦大学附属华山医院门诊楼","address":"上海市静安区乌鲁木齐中路12号复旦大学附属华山医院门诊楼1F层","tel":"","category":"基础设施:公共设施:公共厕所","type":0,"location":{"lat":31.216645,"lng":121.443023},"_distance":120.93,"ad_info":{"adcode":310106,"province":"上海市","city":"上海市","district":"静安区"}},{"id":"17871816106311875422","title":"男洗手间复旦大学附属华山医院门诊楼","address":"上海市静安区乌鲁木齐中路12号复旦大学附属华山医院门诊楼6F层","tel":"","category":"基础设施:公共设施:公共厕所","type":0,"location":{"lat":31.216646,"lng":121.44302},"_distance":121.05,"ad_info":{"adcode":310106,"province":"上海市","city":"上海市","district":"静安区"}},{"id":"13454658534337987914","title":"男洗手间(复旦大学附属华山医院门诊楼)","address":"上海市静安区乌鲁木齐中路12号复旦大学附属华山医院门诊楼5F层","tel":"","category":"基础设施:公共设施:公共厕所","type":0,"location":{"lat":31.216647,"lng":121.443022},"_distance":121.05,"ad_info":{"adcode":310106,"province":"上海市","city":"上海市","district":"静安区"}},{"id":"13524363454938463318","title":"女洗手间复旦大学附属华山医院门诊楼","address":"上海市静安区华山路与乌鲁木齐北路交叉口西南方向70米","tel":"","category":"基础设施:公共设施:公共厕所","type":0,"location":{"lat":31.216521,"lng":121.443329},"_distance":86.29,"ad_info":{"adcode":310106,"province":"上海市","city":"上海市","district":"静安区"}},{"id":"2109253188714384377","title":"无障碍洗手间(华山医院住院楼)","address":"上海市静安区乌鲁木齐中路12号6号楼1F","tel":"","category":"基础设施:公共设施:公共厕所","type":0,"location":{"lat":31.216532,"lng":121.443336},"_distance":86.62,"ad_info":{"adcode":310106,"province":"上海市","city":"上海市","district":"静安区"}},{"id":"16126802344592846977","title":"公共厕所复旦大学附属华山医院门诊楼","address":"上海市静安区华山路与乌鲁木齐北路交叉口西南方向80米","tel":"","category":"基础设施:公共设施:公共厕所","type":0,"location":{"lat":31.216518,"lng":121.443324},"_distance":86.68,"ad_info":{"adcode":310106,"province":"上海市","city":"上海市","district":"静安区"}},{"id":"7970200760900893629","title":"女洗手间(复旦大学附属华山医院门诊楼)","address":"上海市静安区乌鲁木齐中路12号复旦大学附属华山医院门诊楼7F层","tel":"","category":"基础设施:公共设施:公共厕所","type":0,"location":{"lat":31.216526,"lng":121.443327},"_distance":169.52,"ad_info":{"adcode":310106,"province":"上海市","city":"上海市","district":"静安区"}},{"id":"7430249797886746111","title":"男洗手间复旦大学附属华山医院门诊楼","address":"上海市静安区乌鲁木齐中路12号复旦大学附属华山医院门诊楼7F层","tel":"","category":"基础设施:公共设施:公共厕所","type":0,"location":{"lat":31.216554,"lng":121.44332},"_distance":171.32,"ad_info":{"adcode":310106,"province":"上海市","city":"上海市","district":"静安区"}},{"id":"5463129107025105706","title":"公共厕所","address":"上海市静安区华山路与乌鲁木齐中路交叉口西南方向70米","tel":"","category":"基础设施:公共设施:公共厕所","type":0,"location":{"lat":31.216556,"lng":121.443311},"_distance":172.08,"ad_info":{"adcode":310106,"province":"上海市","city":"上海市","district":"静安区"}},{"id":"16716727169230866540","title":"无障碍洗手间(华山医院门诊楼)","address":"上海市静安区乌鲁木齐中路12号门诊楼3F","tel":"","category":"基础设施:公共设施:公共厕所","type":0,"location":{"lat":31.216519,"lng":121.443272},"_distance":265.66,"ad_info":{"adcode":310106,"province":"上海市","city":"上海市","district":"静安区"}},{"id":"4075495342246343005","title":"上海市上海宾馆有限公司公共厕所","address":"上海市静安区乌鲁木齐北路","tel":"","category":"基础设施:公共设施:公共厕所","type":0,"location":{"lat":31.21805,"lng":121.4441},"_distance":358.16,"ad_info":{"adcode":310106,"province":"上海市","city":"上海市","district":"静安区"}},{"id":"3688648617495578216","title":"男洗手间(环贸iapm)","address":"上海市徐汇区淮海中路999号环贸iapmLG2层","tel":"","category":"基础设施:公共设施:公共厕所","type":0,"location":{"lat":31.215613,"lng":121.457184},"_distance":400.36,"ad_info":{"adcode":310104,"province":"上海市","city":"上海市","district":"徐汇区"}},{"id":"12139843633876247894","title":"无障碍洗手间(环贸iapm)","address":"上海市徐汇区淮海中路999号环贸iapmL2层","tel":"","category":"基础设施:公共设施:公共厕所","type":0,"location":{"lat":31.215609,"lng":121.457192},"_distance":306.71,"ad_info":{"adcode":310104,"province":"上海市","city":"上海市","district":"徐汇区"}},{"id":"13448995579891334736","title":"公共厕所","address":"上海市长宁区武定西路与镇宁路465弄交叉口东南方向110米","tel":"","category":"基础设施:公共设施:公共厕所","type":0,"location":{"lat":31.22138,"lng":121.432857},"_distance":528.69,"ad_info":{"adcode":310105,"province":"上海市","city":"上海市","district":"长宁区"}},{"id":"13137995203518842927","title":"无障碍洗手间(华东医院)","address":"上海市静安区延安西路221号9号楼9F","tel":"","category":"基础设施:公共设施:公共厕所","type":0,"location":{"lat":31.218427,"lng":121.441025},"_distance":186.45,"ad_info":{"adcode":310106,"province":"上海市","city":"上海市","district":"静安区"}},{"id":"8893527217872322064","title":"无障碍洗手间(华东医院)","address":"上海市静安区延安西路221号9号楼8F","tel":"","category":"基础设施:公共设施:公共厕所","type":0,"location":{"lat":31.218432,"lng":121.441022},"_distance":159.47,"ad_info":{"adcode":310106,"province":"上海市","city":"上海市","district":"静安区"}},{"id":"2752400987744266094","title":"无障碍洗手间(华东医院)","address":"上海市静安区延安西路221号9号楼2F","tel":"","category":"基础设施:公共设施:公共厕所","type":0,"location":{"lat":31.218438,"lng":121.44101},"_distance":160.09,"ad_info":{"adcode":310106,"province":"上海市","city":"上海市","district":"静安区"}},{"id":"3941116436373287855","title":"无障碍洗手间(华东医院)","address":"上海市静安区延安西路221号9号楼10F","tel":"","category":"基础设施:公共设施:公共厕所","type":0,"location":{"lat":31.218438,"lng":121.441011},"_distance":160.31,"ad_info":{"adcode":310106,"province":"上海市","city":"上海市","district":"静安区"}},{"id":"14861551726252914200","title":"女洗手间复旦大学附属华山医院门诊楼","address":"上海市静安区乌鲁木齐中路12号复旦大学附属华山医院门诊楼5F层","tel":"","category":"基础设施:公共设施:公共厕所","type":0,"location":{"lat":31.216669,"lng":121.443008},"_distance":102.67,"ad_info":{"adcode":310106,"province":"上海市","city":"上海市","district":"静安区"}},{"id":"14158733063242997207","title":"男洗手间(复旦大学附属华山医院门诊楼)","address":"上海市静安区华山路与乌鲁木齐北路交叉口西南方向90米","tel":"","category":"基础设施:公共设施:公共厕所","type":0,"location":{"lat":31.216649,"lng":121.443022},"_distance":104.88,"ad_info":{"adcode":310106,"province":"上海市","city":"上海市","district":"静安区"}},{"id":"16537847861334685645","title":"上海国际贵都大饭店洗手间","address":"上海市静安区华山路与延安中路交叉口西南方向120米","tel":"","category":"基础设施:公共设施:公共厕所","type":0,"location":{"lat":31.220015,"lng":121.44482},"_distance":452.13,"ad_info":{"adcode":310106,"province":"上海市","city":"上海市","district":"静安区"}},{"id":"6974570720878705767","title":"公共厕所","address":"上海市静安区常德路与延安中路交叉口西南方向100米","tel":"","category":"基础设施:公共设施:公共厕所","type":0,"location":{"lat":31.22178,"lng":121.44819},"_distance":537.84,"ad_info":{"adcode":310106,"province":"上海市","city":"上海市","district":"静安区"}},{"id":"1844038938602220670","title":"公共厕所","address":"上海市静安区华山路189号","tel":"","category":"基础设施:公共设施:公共厕所","type":0,"location":{"lat":31.22137,"lng":121.44609},"_distance":559.83,"ad_info":{"adcode":310106,"province":"上海市","city":"上海市","district":"静安区"}},{"id":"6951756652551672831","title":"公共厕所","address":"上海市静安区襄阳北路4-2正东方向30米","tel":"","category":"基础设施:公共设施:公共厕所","type":0,"location":{"lat":31.220247,"lng":121.454593},"_distance":567.39,"ad_info":{"adcode":310106,"province":"上海市","city":"上海市","district":"静安区"}},{"id":"16873514749653003861","title":"璞丽酒店洗手间","address":"上海市静安区常德路1号(近延安中路)","tel":"","category":"基础设施:公共设施:公共厕所","type":0,"location":{"lat":31.222337,"lng":121.448206},"_distance":618.32,"ad_info":{"adcode":310106,"province":"上海市","city":"上海市","district":"静安区"}},{"id":"13619995947079861353","title":"无障碍洗手间(徐汇中心医院)","address":"上海市徐汇区淮海中路966号4号楼2层","tel":"","category":"基础设施:公共设施:公共厕所","type":0,"location":{"lat":31.21724,"lng":121.457404},"_distance":419.95,"ad_info":{"adcode":310104,"province":"上海市","city":"上海市","district":"徐汇区"}},{"id":"6422055770645217578","title":"无障碍洗手间(徐汇中心医院)","address":"上海市徐汇区淮海中路966号4号楼1F","tel":"","category":"基础设施:公共设施:公共厕所","type":0,"location":{"lat":31.217256,"lng":121.457407},"_distance":420.07,"ad_info":{"adcode":310104,"province":"上海市","city":"上海市","district":"徐汇区"}},{"id":"1843738849969608876","title":"公共厕所","address":"上海市徐汇区淮海中路1008号","tel":"","category":"基础设施:公共设施:公共厕所","type":0,"location":{"lat":31.21677,"lng":121.457414},"_distance":325.67,"ad_info":{"adcode":310104,"province":"上海市","city":"上海市","district":"徐汇区"}},{"id":"9064724198392970653","title":"公共厕所","address":"上海市长宁区镇宁路405弄与镇宁路465弄交叉口西南方向150米","tel":"","category":"基础设施:公共设施:公共厕所","type":0,"location":{"lat":31.222564,"lng":121.433449},"_distance":529.05,"ad_info":{"adcode":310105,"province":"上海市","city":"上海市","district":"长宁区"}},{"id":"14836790575251592628","title":"无障碍洗手间(华东医院)","address":"上海市静安区延安西路221号9号楼3F","tel":"","category":"基础设施:公共设施:公共厕所","type":0,"location":{"lat":31.218447,"lng":121.440997},"_distance":106.7,"ad_info":{"adcode":310106,"province":"上海市","city":"上海市","district":"静安区"}},{"id":"16778821808275906271","title":"无障碍洗手间(华东医院)","address":"上海市静安区延安西路221号9号楼5F","tel":"","category":"基础设施:公共设施:公共厕所","type":0,"location":{"lat":31.218442,"lng":121.441033},"_distance":49.13,"ad_info":{"adcode":310106,"province":"上海市","city":"上海市","district":"静安区"}},{"id":"2316775682973304274","title":"无障碍洗手间(华东医院)","address":"上海市静安区延安西路221号9号楼7F","tel":"","category":"基础设施:公共设施:公共厕所","type":0,"location":{"lat":31.218443,"lng":121.441028},"_distance":49.31,"ad_info":{"adcode":310106,"province":"上海市","city":"上海市","district":"静安区"}},{"id":"13960187452808747828","title":"无障碍洗手间(华东医院2号楼)","address":"上海市静安区延安西路221号2号楼11F","tel":"","category":"基础设施:公共设施:公共厕所","type":0,"location":{"lat":31.218444,"lng":121.441049},"_distance":49.66,"ad_info":{"adcode":310106,"province":"上海市","city":"上海市","district":"静安区"}},{"id":"18363542636335521556","title":"无障碍洗手间(华东医院2号楼)","address":"上海市静安区延安西路221号2号楼10F","tel":"","category":"基础设施:公共设施:公共厕所","type":0,"location":{"lat":31.218501,"lng":121.441541},"_distance":70.67,"ad_info":{"adcode":310106,"province":"上海市","city":"上海市","district":"静安区"}},{"id":"15321530231469121929","title":"无障碍洗手间(华东医院1号楼)","address":"上海市静安区延安西路221号1号楼3F","tel":"","category":"基础设施:公共设施:公共厕所","type":0,"location":{"lat":31.218483,"lng":121.44151},"_distance":71.04,"ad_info":{"adcode":310106,"province":"上海市","city":"上海市","district":"静安区"}},{"id":"14649397380614785267","title":"无障碍公共厕所(华东医院)","address":"上海市静安区延安西路221号1号楼","tel":"","category":"基础设施:公共设施:公共厕所","type":0,"location":{"lat":31.218518,"lng":121.441513},"_distance":73.97,"ad_info":{"adcode":310106,"province":"上海市","city":"上海市","district":"静安区"}},{"id":"11198936913448570343","title":"无障碍洗手间(华东医院2号楼)","address":"上海市静安区延安西路221号2号楼14F","tel":"","category":"基础设施:公共设施:公共厕所","type":0,"location":{"lat":31.21883,"lng":121.442276},"_distance":115.29,"ad_info":{"adcode":310106,"province":"上海市","city":"上海市","district":"静安区"}},{"id":"5118984700067285497","title":"无障碍洗手间(华东医院2号楼)","address":"上海市静安区延安西路221号2号楼21F","tel":"","category":"基础设施:公共设施:公共厕所","type":0,"location":{"lat":31.218867,"lng":121.442333},"_distance":115.66,"ad_info":{"adcode":310106,"province":"上海市","city":"上海市","district":"静安区"}},{"id":"1796063952491018186","title":"无障碍洗手间(华东医院2号楼)","address":"上海市静安区延安西路221号2号楼22F","tel":"","category":"基础设施:公共设施:公共厕所","type":0,"location":{"lat":31.21885,"lng":121.442276},"_distance":117,"ad_info":{"adcode":310106,"province":"上海市","city":"上海市","district":"静安区"}},{"id":"17878023078627461202","title":"公共厕所","address":"上海市静安区延安西路129号西南方向70米","tel":"","category":"基础设施:公共设施:公共厕所","type":0,"location":{"lat":31.219361,"lng":121.443281},"_distance":166.07,"ad_info":{"adcode":310106,"province":"上海市","city":"上海市","district":"静安区"}},{"id":"14706212754574706558","title":"无障碍洗手间(华东医院)","address":"上海市静安区延安西路139号11F","tel":"","category":"基础设施:公共设施:公共厕所","type":0,"location":{"lat":31.219276,"lng":121.442766},"_distance":184.45,"ad_info":{"adcode":310106,"province":"上海市","city":"上海市","district":"静安区"}},{"id":"2625464591172165723","title":"公共厕所","address":"上海市静安区静安寺街道常德路与延安中路交叉口西南方向100米","tel":"","category":"基础设施:公共设施:公共厕所","type":0,"location":{"lat":31.222473,"lng":121.447331},"_distance":522.47,"ad_info":{"adcode":310106,"province":"上海市","city":"上海市","district":"静安区"}},{"id":"8933132474433560410","title":"公共厕所","address":"上海市静安区延安中路1157弄附近","tel":"","category":"基础设施:公共设施:公共厕所","type":0,"location":{"lat":31.22263,"lng":121.44729},"_distance":540.39,"ad_info":{"adcode":310106,"province":"上海市","city":"上海市","district":"静安区"}},{"id":"9863584002873931624","title":"女洗手间(静安嘉里中心南区)","address":"上海市静安区安义路与常德路交叉口东南方向70米","tel":"","category":"基础设施:公共设施:公共厕所","type":0,"location":{"lat":31.222985,"lng":121.449177},"_distance":555.08,"ad_info":{"adcode":310106,"province":"上海市","city":"上海市","district":"静安区"}},{"id":"5411930424743939736","title":"女洗手间(静安嘉里中心南区)","address":"上海市静安区铜仁路与延安中路交叉口西北方向120米","tel":"","category":"基础设施:公共设施:公共厕所","type":0,"location":{"lat":31.222949,"lng":121.450122},"_distance":550.89,"ad_info":{"adcode":310106,"province":"上海市","city":"上海市","district":"静安区"}},{"id":"11757783526910086739","title":"男洗手间(静安嘉里中心南区)","address":"上海市静安区铜仁路与延安中路交叉口西北方向120米","tel":"","category":"基础设施:公共设施:公共厕所","type":0,"location":{"lat":31.222975,"lng":121.45011},"_distance":553.85,"ad_info":{"adcode":310106,"province":"上海市","city":"上海市","district":"静安区"}},{"id":"9037344104355683088","title":"无障碍公共厕所(静安香格里拉大酒店)","address":"上海市静安区延安中路1228号","tel":"","category":"基础设施:公共设施:公共厕所","type":0,"location":{"lat":31.223011,"lng":121.450468},"_distance":559.59,"ad_info":{"adcode":310106,"province":"上海市","city":"上海市","district":"静安区"}},{"id":"18138488732661837782","title":"公共厕所","address":"上海市静安区延安中路与铜仁路交叉口北50米","tel":"","category":"基础设施:公共设施:公共厕所","type":0,"location":{"lat":31.223122,"lng":121.451534},"_distance":572.36,"ad_info":{"adcode":310106,"province":"上海市","city":"上海市","district":"静安区"}},{"id":"4212407359261989682","title":"公共厕所","address":"上海市静安区长乐路536号","tel":"","category":"基础设施:公共设施:公共厕所","type":0,"location":{"lat":31.220569,"lng":121.45624},"_distance":575.13,"ad_info":{"adcode":310106,"province":"上海市","city":"上海市","district":"静安区"}},{"id":"2131322225843129773","title":"公共厕所","address":"上海市静安区延安中路847东南方向160米","tel":"","category":"基础设施:公共设施:公共厕所","type":0,"location":{"lat":31.221471,"lng":121.455512},"_distance":578.11,"ad_info":{"adcode":310106,"province":"上海市","city":"上海市","district":"静安区"}},{"id":"4568218932409811086","title":"无障碍洗手间(徐汇中心医院)","address":"上海市徐汇区淮海中路966号2号楼15F","tel":"","category":"基础设施:公共设施:公共厕所","type":0,"location":{"lat":31.217063,"lng":121.45777},"_distance":465.82,"ad_info":{"adcode":310104,"province":"上海市","city":"上海市","district":"徐汇区"}},{"id":"11793421385170207244","title":"无障碍洗手间(徐汇中心医院)","address":"上海市徐汇区淮海中路966号2号楼21F","tel":"","category":"基础设施:公共设施:公共厕所","type":0,"location":{"lat":31.217052,"lng":121.457786},"_distance":467.47,"ad_info":{"adcode":310104,"province":"上海市","city":"上海市","district":"徐汇区"}},{"id":"8739603075854982284","title":"无障碍洗手间(徐汇中心医院)","address":"上海市徐汇区淮海中路966号","tel":"","category":"基础设施:公共设施:公共厕所","type":0,"location":{"lat":31.216805,"lng":121.457933},"_distance":397.04,"ad_info":{"adcode":310104,"province":"上海市","city":"上海市","district":"徐汇区"}},{"id":"4783265295476489381","title":"公共厕所","address":"上海市徐汇区淮海中路966号","tel":"","category":"基础设施:公共设施:公共厕所","type":0,"location":{"lat":31.216766,"lng":121.458099},"_distance":413.52,"ad_info":{"adcode":310104,"province":"上海市","city":"上海市","district":"徐汇区"}},{"id":"15678284793477164023","title":"无障碍洗手间(徐汇中心医院)","address":"上海市徐汇区淮海中路966号1号楼11层","tel":"","category":"基础设施:公共设施:公共厕所","type":0,"location":{"lat":31.217098,"lng":121.458245},"_distance":416.14,"ad_info":{"adcode":310104,"province":"上海市","city":"上海市","district":"徐汇区"}},{"id":"3946962919733882521","title":"公共厕所","address":"上海市长宁区镇宁路405弄与镇宁路465弄交叉口西南方向150米","tel":"","category":"基础设施:公共设施:公共厕所","type":0,"location":{"lat":31.2225,"lng":121.43221},"_distance":471.25,"ad_info":{"adcode":310105,"province":"上海市","city":"上海市","district":"长宁区"}},{"id":"11123058235350605353","title":"无障碍洗手间(华东医院1号楼)","address":"上海市静安区延安西路221号1号楼2层","tel":"","category":"基础设施:公共设施:公共厕所","type":0,"location":{"lat":31.218518,"lng":121.441489},"_distance":71.04,"ad_info":{"adcode":310106,"province":"上海市","city":"上海市","district":"静安区"}},{"id":"214739438407347946","title":"无障碍洗手间华东医院一号楼","address":"上海市静安区延安西路221号1号楼5F","tel":"","category":"基础设施:公共设施:公共厕所","type":0,"location":{"lat":31.218518,"lng":121.441499},"_distance":71.52,"ad_info":{"adcode":310106,"province":"上海市","city":"上海市","district":"静安区"}},{"id":"2443946022869414711","title":"无障碍洗手间(华东医院2号楼)","address":"上海市静安区延安西路221号2号楼19F","tel":"","category":"基础设施:公共设施:公共厕所","type":0,"location":{"lat":31.218796,"lng":121.442016},"_distance":22.77,"ad_info":{"adcode":310106,"province":"上海市","city":"上海市","district":"静安区"}},{"id":"4646414392334948890","title":"无障碍洗手间(华东医院2号楼)","address":"上海市静安区延安西路221号2号楼4F","tel":"","category":"基础设施:公共设施:公共厕所","type":0,"location":{"lat":31.218878,"lng":121.442224},"_distance":25.07,"ad_info":{"adcode":310106,"province":"上海市","city":"上海市","district":"静安区"}},{"id":"18059968623734144577","title":"无障碍洗手间(华东医院2号楼)","address":"上海市静安区延安西路221号2号楼5层","tel":"","category":"基础设施:公共设施:公共厕所","type":0,"location":{"lat":31.218792,"lng":121.441873},"_distance":26.23,"ad_info":{"adcode":310106,"province":"上海市","city":"上海市","district":"静安区"}},{"id":"1500751467080347449","title":"无障碍洗手间(华东医院)","address":"上海市静安区延安西路139号10F","tel":"","category":"基础设施:公共设施:公共厕所","type":0,"location":{"lat":31.219257,"lng":121.442736},"_distance":38.31,"ad_info":{"adcode":310106,"province":"上海市","city":"上海市","district":"静安区"}},{"id":"17492668171604884223","title":"无障碍洗手间(华东医院)","address":"上海市静安区延安西路139号16F","tel":"","category":"基础设施:公共设施:公共厕所","type":0,"location":{"lat":31.219287,"lng":121.442765},"_distance":39.18,"ad_info":{"adcode":310106,"province":"上海市","city":"上海市","district":"静安区"}},{"id":"10730898945967405367","title":"无障碍洗手间(华东医院)","address":"上海市静安区延安西路139号4F","tel":"","category":"基础设施:公共设施:公共厕所","type":0,"location":{"lat":31.219285,"lng":121.442757},"_distance":39.26,"ad_info":{"adcode":310106,"province":"上海市","city":"上海市","district":"静安区"}},{"id":"9788303304136736495","title":"无障碍洗手间(华东医院)","address":"上海市静安区延安西路139号9F","tel":"","category":"基础设施:公共设施:公共厕所","type":0,"location":{"lat":31.219289,"lng":121.442767},"_distance":122.01,"ad_info":{"adcode":310106,"province":"上海市","city":"上海市","district":"静安区"}},{"id":"9509514781650481463","title":"无障碍洗手间(华东医院)","address":"上海市静安区延安西路139号12F","tel":"","category":"基础设施:公共设施:公共厕所","type":0,"location":{"lat":31.21929,"lng":121.442753},"_distance":122.71,"ad_info":{"adcode":310106,"province":"上海市","city":"上海市","district":"静安区"}},{"id":"14659835656985989735","title":"无障碍洗手间(华东医院)","address":"上海市静安区延安西路139号15F","tel":"","category":"基础设施:公共设施:公共厕所","type":0,"location":{"lat":31.219297,"lng":121.442751},"_distance":123.64,"ad_info":{"adcode":310106,"province":"上海市","city":"上海市","district":"静安区"}},{"id":"4078225380300050358","title":"无障碍洗手间(华东医院)","address":"上海市静安区延安西路139号2F","tel":"","category":"基础设施:公共设施:公共厕所","type":0,"location":{"lat":31.219294,"lng":121.442735},"_distance":218.18,"ad_info":{"adcode":310106,"province":"上海市","city":"上海市","district":"静安区"}},{"id":"5851715097985371325","title":"无障碍洗手间(华东医院)","address":"上海市静安区延安西路139号3F","tel":"","category":"基础设施:公共设施:公共厕所","type":0,"location":{"lat":31.219256,"lng":121.442653},"_distance":225.51,"ad_info":{"adcode":310106,"province":"上海市","city":"上海市","district":"静安区"}},{"id":"15586789962460361226","title":"无障碍洗手间(华东医院)","address":"上海市静安区延安西路139号1F","tel":"","category":"基础设施:公共设施:公共厕所","type":0,"location":{"lat":31.219283,"lng":121.442642},"_distance":226.62,"ad_info":{"adcode":310106,"province":"上海市","city":"上海市","district":"静安区"}},{"id":"17819082943046152289","title":"无障碍洗手间(华东医院)","address":"上海市静安区延安西路139号7F","tel":"","category":"基础设施:公共设施:公共厕所","type":0,"location":{"lat":31.219246,"lng":121.442638},"_distance":321.47,"ad_info":{"adcode":310106,"province":"上海市","city":"上海市","district":"静安区"}},{"id":"3838865107214861104","title":"无障碍洗手间(华东医院2号楼)","address":"上海市静安区延安西路221号2号楼15F","tel":"","category":"基础设施:公共设施:公共厕所","type":0,"location":{"lat":31.218879,"lng":121.442315},"_distance":351.07,"ad_info":{"adcode":310106,"province":"上海市","city":"上海市","district":"静安区"}},{"id":"12670171399226593884","title":"无障碍洗手间(华东医院2号楼)","address":"上海市静安区延安西路221号2号楼13F","tel":"","category":"基础设施:公共设施:公共厕所","type":0,"location":{"lat":31.218882,"lng":121.442302},"_distance":352.51,"ad_info":{"adcode":310106,"province":"上海市","city":"上海市","district":"静安区"}},{"id":"5926046041032607544","title":"女洗手间(芮欧百货)","address":"上海市静安区南京西路1601号芮欧百货B1层","tel":"","category":"基础设施:公共设施:公共厕所","type":0,"location":{"lat":31.223071,"lng":121.447673},"_distance":454.18,"ad_info":{"adcode":310106,"province":"上海市","city":"上海市","district":"静安区"}},{"id":"15292798302762791550","title":"无障碍洗手间(芮欧百货)","address":"上海市静安区南京西路1601号芮欧百货B1层","tel":"","category":"基础设施:公共设施:公共厕所","type":0,"location":{"lat":31.223082,"lng":121.44771},"_distance":455.21,"ad_info":{"adcode":310106,"province":"上海市","city":"上海市","district":"静安区"}},{"id":"7403366639364335791","title":"男洗手间(芮欧百货)","address":"上海市静安区安义路与常德路交叉口西南方向60米","tel":"","category":"基础设施:公共设施:公共厕所","type":0,"location":{"lat":31.223124,"lng":121.447773},"_distance":459.53,"ad_info":{"adcode":310106,"province":"上海市","city":"上海市","district":"静安区"}},{"id":"16831636952812249218","title":"男洗手间(静安嘉里中心南区)","address":"上海市静安区南京西路1515号静安嘉里中心南区L1层","tel":"","category":"基础设施:公共设施:公共厕所","type":0,"location":{"lat":31.222995,"lng":121.44921},"_distance":445.29,"ad_info":{"adcode":310106,"province":"上海市","city":"上海市","district":"静安区"}},{"id":"17037016892645123383","title":"无障碍洗手间(静安嘉里中心南区)","address":"上海市静安区安义路与常德路交叉口东南方向60米","tel":"","category":"基础设施:公共设施:公共厕所","type":0,"location":{"lat":31.223053,"lng":121.449177},"_distance":451.53,"ad_info":{"adcode":310106,"province":"上海市","city":"上海市","district":"静安区"}},{"id":"1504028937379908123","title":"无障碍洗手间(芮欧百货)","address":"上海市静安区南京西路1601号芮欧百货F5层","tel":"","category":"基础设施:公共设施:公共厕所","type":0,"location":{"lat":31.22329,"lng":121.44728},"_distance":504.71,"ad_info":{"adcode":310106,"province":"上海市","city":"上海市","district":"静安区"}},{"id":"8093216452419965749","title":"女洗手间(静安嘉里中心北区)","address":"上海市静安区安义路与常德路交叉口东北方向120米","tel":"","category":"基础设施:公共设施:公共厕所","type":0,"location":{"lat":31.22368,"lng":121.449544},"_distance":522.8,"ad_info":{"adcode":310106,"province":"上海市","city":"上海市","district":"静安区"}},{"id":"1916222676723164906","title":"男洗手间(静安嘉里中心北区)","address":"上海市静安区安义路与常德路交叉口东北方向60米","tel":"","category":"基础设施:公共设施:公共厕所","type":0,"location":{"lat":31.223602,"lng":121.448694},"_distance":527.18,"ad_info":{"adcode":310106,"province":"上海市","city":"上海市","district":"静安区"}},{"id":"10070586441491184565","title":"公共厕所","address":"上海市静安区巨鹿路550临","tel":"","category":"基础设施:公共设施:公共厕所","type":0,"location":{"lat":31.221638,"lng":121.455941},"_distance":476.11,"ad_info":{"adcode":310106,"province":"上海市","city":"上海市","district":"静安区"}},{"id":"4798405018086630208","title":"公共厕所","address":"上海市黄浦区进贤路与陕西南路交叉口东南方向80米","tel":"","category":"基础设施:公共设施:公共厕所","type":0,"location":{"lat":31.22086,"lng":121.45812},"_distance":529.5,"ad_info":{"adcode":310101,"province":"上海市","city":"上海市","district":"黄浦区"}},{"id":"16383449013818211119","title":"上海衡山马勒别墅饭店洗手间","address":"上海市静安区陕西南路30号","tel":"","category":"基础设施:公共设施:公共厕所","type":0,"location":{"lat":31.222869,"lng":121.456368},"_distance":536.83,"ad_info":{"adcode":310106,"province":"上海市","city":"上海市","district":"静安区"}},{"id":"6012747593764143000","title":"无障碍洗手间(徐汇中心医院)","address":"上海市徐汇区淮海中路966号1号楼24层","tel":"","category":"基础设施:公共设施:公共厕所","type":0,"location":{"lat":31.217105,"lng":121.458262},"_distance":456.85,"ad_info":{"adcode":310104,"province":"上海市","city":"上海市","district":"徐汇区"}},{"id":"8675792420969010468","title":"无障碍洗手间(徐汇中心医院)","address":"上海市徐汇区淮海中路966号1号楼18层","tel":"","category":"基础设施:公共设施:公共厕所","type":0,"location":{"lat":31.217099,"lng":121.458277},"_distance":458.53,"ad_info":{"adcode":310104,"province":"上海市","city":"上海市","district":"徐汇区"}},{"id":"6152931862622426933","title":"无障碍洗手间(徐汇中心医院)","address":"上海市徐汇区淮海中路966号1号楼8层","tel":"","category":"基础设施:公共设施:公共厕所","type":0,"location":{"lat":31.217122,"lng":121.4583},"_distance":459.3,"ad_info":{"adcode":310104,"province":"上海市","city":"上海市","district":"徐汇区"}},{"id":"15401452031339340497","title":"无障碍洗手间(华东医院)","address":"上海市静安区上延安西路221号2号楼8层","tel":"","category":"基础设施:公共设施:公共厕所","type":0,"location":{"lat":31.21877,"lng":121.44187},"_distance":160.03,"ad_info":{"adcode":310106,"province":"上海市","city":"上海市","district":"静安区"}},{"id":"150432381484186125","title":"无障碍洗手间(华东医院)","address":"上海市静安区延安西路221号2号楼20层","tel":"","category":"基础设施:公共设施:公共厕所","type":0,"location":{"lat":31.218781,"lng":121.441895},"_distance":160.09,"ad_info":{"adcode":310106,"province":"上海市","city":"上海市","district":"静安区"}},{"id":"1132670542837976090","title":"无障碍洗手间(华东医院2号楼)","address":"上海市静安区延安西路221号2号楼3F","tel":"","category":"基础设施:公共设施:公共厕所","type":0,"location":{"lat":31.218872,"lng":121.44229},"_distance":128.48,"ad_info":{"adcode":310106,"province":"上海市","city":"上海市","district":"静安区"}},{"id":"3951753382573949226","title":"无障碍洗手间(华东医院2号楼)","address":"上海市静安区延安西路221号2号楼9F","tel":"","category":"基础设施:公共设施:公共厕所","type":0,"location":{"lat":31.218854,"lng":121.442286},"_distance":130.2,"ad_info":{"adcode":310106,"province":"上海市","city":"上海市","district":"静安区"}},{"id":"8467691232941920639","title":"无障碍洗手间(华东医院2号楼)","address":"上海市静安区延安西路221号2号楼2F","tel":"","category":"基础设施:公共设施:公共厕所","type":0,"location":{"lat":31.218849,"lng":121.442263},"_distance":130.39,"ad_info":{"adcode":310106,"province":"上海市","city":"上海市","district":"静安区"}},{"id":"9481855964314573369","title":"公共厕所","address":"上海市静安区北京西路1682号","tel":"","category":"基础设施:公共设施:公共厕所","type":0,"location":{"lat":31.225731,"lng":121.443935},"_distance":667.71,"ad_info":{"adcode":310106,"province":"上海市","city":"上海市","district":"静安区"}},{"id":"6552294380043491098","title":"公共厕所","address":"上海市静安区南京西路恒隆广场南侧约90米","tel":"","category":"基础设施:公共设施:公共厕所","type":0,"location":{"lat":31.22618,"lng":121.45361},"_distance":999.32,"ad_info":{"adcode":310106,"province":"上海市","city":"上海市","district":"静安区"}},{"id":"4194083133753468455","title":"公共厕所","address":"上海市静安区愚园路246弄9","tel":"","category":"基础设施:公共设施:公共厕所","type":0,"location":{"lat":31.22349,"lng":121.44338},"_distance":461.56,"ad_info":{"adcode":310106,"province":"上海市","city":"上海市","district":"静安区"}},{"id":"513256528530479528","title":"女洗手间(芮欧百货)","address":"上海市静安区南京西路1601号芮欧百货F5层","tel":"","category":"基础设施:公共设施:公共厕所","type":0,"location":{"lat":31.223355,"lng":121.447301},"_distance":374.61,"ad_info":{"adcode":310106,"province":"上海市","city":"上海市","district":"静安区"}},{"id":"4936403492732449552","title":"女洗手间(芮欧百货)","address":"上海市静安区南京西路1601号芮欧百货F2层","tel":"","category":"基础设施:公共设施:公共厕所","type":0,"location":{"lat":31.223363,"lng":121.447287},"_distance":375.56,"ad_info":{"adcode":310106,"province":"上海市","city":"上海市","district":"静安区"}},{"id":"10852330638262393893","title":"女洗手间(芮欧百货)","address":"上海市静安区南京西路1601号芮欧百货F3层","tel":"","category":"基础设施:公共设施:公共厕所","type":0,"location":{"lat":31.223363,"lng":121.447303},"_distance":375.67,"ad_info":{"adcode":310106,"province":"上海市","city":"上海市","district":"静安区"}},{"id":"6021154569767973116","title":"女洗手间(芮欧百货)","address":"上海市静安区南京西路1601号芮欧百货F4层","tel":"","category":"基础设施:公共设施:公共厕所","type":0,"location":{"lat":31.223363,"lng":121.447304},"_distance":380.33,"ad_info":{"adcode":310106,"province":"上海市","city":"上海市","district":"静安区"}},{"id":"9730496542473346266","title":"男洗手间(芮欧百货)","address":"上海市静安区安义路与常德路交叉口西北方向110米","tel":"","category":"基础设施:公共设施:公共厕所","type":0,"location":{"lat":31.223388,"lng":121.447286},"_distance":383.3,"ad_info":{"adcode":310106,"province":"上海市","city":"上海市","district":"静安区"}},{"id":"7794298668240562943","title":"无障碍洗手间(静安嘉里中心北区)","address":"上海市静安区南京西路1515号静安嘉里中心北区L2层","tel":"","category":"基础设施:公共设施:公共厕所","type":0,"location":{"lat":31.223634,"lng":121.448813},"_distance":405.07,"ad_info":{"adcode":310106,"province":"上海市","city":"上海市","district":"静安区"}},{"id":"10844467328217672057","title":"无障碍洗手间(静安嘉里中心北区)","address":"上海市静安区南京西路1515号静安嘉里中心北区L3层","tel":"","category":"基础设施:公共设施:公共厕所","type":0,"location":{"lat":31.223641,"lng":121.448811},"_distance":405.7,"ad_info":{"adcode":310106,"province":"上海市","city":"上海市","district":"静安区"}},{"id":"17519052113696677726","title":"女洗手间(静安嘉里中心北区)","address":"上海市静安区安义路与常德路交叉口东北方向60米","tel":"","category":"基础设施:公共设施:公共厕所","type":0,"location":{"lat":31.223732,"lng":121.448852},"_distance":429.56,"ad_info":{"adcode":310106,"province":"上海市","city":"上海市","district":"静安区"}},{"id":"17075256465984614725","title":"无障碍洗手间(静安嘉里中心东区)","address":"上海市静安区南京西路1515号静安嘉里中心东区L1层","tel":"","category":"基础设施:公共设施:公共厕所","type":0,"location":{"lat":31.224106,"lng":121.45024},"_distance":462.76,"ad_info":{"adcode":310106,"province":"上海市","city":"上海市","district":"静安区"}},{"id":"2832203177161252396","title":"无障碍洗手间(静安嘉里中心北区)","address":"上海市静安区安义路与常德路交叉口东北方向110米","tel":"","category":"基础设施:公共设施:公共厕所","type":0,"location":{"lat":31.223983,"lng":121.449356},"_distance":510.15,"ad_info":{"adcode":310106,"province":"上海市","city":"上海市","district":"静安区"}},{"id":"8823903842550877864","title":"女洗手间(千七百八十八E.A.T)","address":"上海市静安区愚园路与愚园支路交叉口西南方向70米","tel":"","category":"基础设施:公共设施:公共厕所","type":0,"location":{"lat":31.222707,"lng":121.443266},"_distance":225.05,"ad_info":{"adcode":310106,"province":"上海市","city":"上海市","district":"静安区"}},{"id":"5490835119192911319","title":"女洗手间(千七百八十八E.A.T)","address":"上海市静安区愚园路与愚园支路交叉口东南方向80米","tel":"","category":"基础设施:公共设施:公共厕所","type":0,"location":{"lat":31.222402,"lng":121.443847},"_distance":235.05,"ad_info":{"adcode":310106,"province":"上海市","city":"上海市","district":"静安区"}},{"id":"413374803089560326","title":"男洗手间(千七百八十八E.A.T)","address":"上海市静安区愚园路与愚园支路交叉口东南方向70米","tel":"","category":"基础设施:公共设施:公共厕所","type":0,"location":{"lat":31.222472,"lng":121.443924},"_distance":185.8,"ad_info":{"adcode":310106,"province":"上海市","city":"上海市","district":"静安区"}},{"id":"289990285720311683","title":"无障碍洗手间(千七百八十八E.A.T)","address":"上海市静安区愚园路与愚园支路交叉口东南方向80米","tel":"","category":"基础设施:公共设施:公共厕所","type":0,"location":{"lat":31.222491,"lng":121.443895},"_distance":186.33,"ad_info":{"adcode":310106,"province":"上海市","city":"上海市","district":"静安区"}},{"id":"11455664317682420416","title":"公共厕所","address":"上海市静安区万航渡路与愚园路交叉口东南方向70米","tel":"","category":"基础设施:公共设施:公共厕所","type":0,"location":{"lat":31.223268,"lng":121.445116},"_distance":273.82,"ad_info":{"adcode":310106,"province":"上海市","city":"上海市","district":"静安区"}},{"id":"9245594728049208619","title":"无障碍洗手间(久光百货)","address":"上海市静安区南京西路1618号","tel":"","category":"基础设施:公共设施:公共厕所","type":0,"location":{"lat":31.223542,"lng":121.446485},"_distance":286.61,"ad_info":{"adcode":310106,"province":"上海市","city":"上海市","district":"静安区"}},{"id":"10570901985080425703","title":"公共厕所","address":"上海市静安区延安中路840号","tel":"","category":"基础设施:公共设施:公共厕所","type":0,"location":{"lat":31.224217,"lng":121.457813},"_distance":509.41,"ad_info":{"adcode":310106,"province":"上海市","city":"上海市","district":"静安区"}},{"id":"7215767278281518933","title":"女洗手间(久光百货)","address":"上海市静安区胶州路与愚园路交叉口东南方向50米","tel":"","category":"基础设施:公共设施:公共厕所","type":0,"location":{"lat":31.223917,"lng":121.445672},"_distance":266.14,"ad_info":{"adcode":310106,"province":"上海市","city":"上海市","district":"静安区"}},{"id":"4155782945568962228","title":"公共厕所(久百城市广场)","address":"上海市静安区胶州路与愚园路交叉口东南方向40米","tel":"","category":"基础设施:公共设施:公共厕所","type":0,"location":{"lat":31.224093,"lng":121.445621},"_distance":279.21,"ad_info":{"adcode":310106,"province":"上海市","city":"上海市","district":"静安区"}},{"id":"2313469878512988998","title":"女洗手间(久光百货)","address":"上海市静安区步行街与愚园路交叉口东南方向40米","tel":"","category":"基础设施:公共设施:公共厕所","type":0,"location":{"lat":31.224226,"lng":121.445532},"_distance":287.59,"ad_info":{"adcode":310106,"province":"上海市","city":"上海市","district":"静安区"}},{"id":"13601571643628082906","title":"女洗手间(久光百货)","address":"上海市静安区常德路与南京西路交叉口西南方向120米","tel":"","category":"基础设施:公共设施:公共厕所","type":0,"location":{"lat":31.223974,"lng":121.446747},"_distance":221.06,"ad_info":{"adcode":310106,"province":"上海市","city":"上海市","district":"静安区"}},{"id":"4684609909762915920","title":"女洗手间(久光百货)","address":"上海市静安区常德路与南京西路交叉口西南方向120米","tel":"","category":"基础设施:公共设施:公共厕所","type":0,"location":{"lat":31.223982,"lng":121.44675},"_distance":221.9,"ad_info":{"adcode":310106,"province":"上海市","city":"上海市","district":"静安区"}},{"id":"7097352335340713635","title":"女洗手间(久光百货)","address":"上海市静安区胶州路与愚园路交叉口东南方向120米","tel":"","category":"基础设施:公共设施:公共厕所","type":0,"location":{"lat":31.223997,"lng":121.446729},"_distance":223.75,"ad_info":{"adcode":310106,"province":"上海市","city":"上海市","district":"静安区"}},{"id":"7207012458848747494","title":"女洗手间(静安嘉里中心北区)","address":"上海市静安区南京西路与铜仁路交叉口西南方向120米","tel":"","category":"基础设施:公共设施:公共厕所","type":0,"location":{"lat":31.22431,"lng":121.449424},"_distance":297.49,"ad_info":{"adcode":310106,"province":"上海市","city":"上海市","district":"静安区"}},{"id":"9250929597607918632","title":"公共厕所","address":"上海市静安区威海路772号","tel":"","category":"基础设施:公共设施:公共厕所","type":0,"location":{"lat":31.225871,"lng":121.457155},"_distance":524.94,"ad_info":{"adcode":310106,"province":"上海市","city":"上海市","district":"静安区"}},{"id":"1450539138793712433","title":"公共厕所","address":"上海市静安区万航渡路764","tel":"","category":"基础设施:公共设施:公共厕所","type":0,"location":{"lat":31.22718,"lng":121.43071},"_distance":619.04,"ad_info":{"adcode":310106,"province":"上海市","city":"上海市","district":"静安区"}},{"id":"414379916450659630","title":"公共厕所","address":"上海市静安区万航渡路767弄43号","tel":"","category":"基础设施:公共设施:公共厕所","type":0,"location":{"lat":31.22791,"lng":121.43175},"_distance":628.02,"ad_info":{"adcode":310106,"province":"上海市","city":"上海市","district":"静安区"}},{"id":"1678457773917120976","title":"移动公共厕所","address":"上海市静安区万航渡路818号正东方向190米","tel":"","category":"基础设施:公共设施:公共厕所","type":0,"location":{"lat":31.22847,"lng":121.43182},"_distance":679.78,"ad_info":{"adcode":310106,"province":"上海市","city":"上海市","district":"静安区"}},{"id":"4644206371574606426","title":"男洗手间(久光百货)","address":"上海市静安区胶州路与愚园路交叉口东南方向10米","tel":"","category":"基础设施:公共设施:公共厕所","type":0,"location":{"lat":31.224426,"lng":121.445747},"_distance":390.37,"ad_info":{"adcode":310106,"province":"上海市","city":"上海市","district":"静安区"}},{"id":"2259200895726729133","title":"无障碍洗手间(晶品)","address":"上海市静安区胶州路与愚园路交叉口东北方向90米","tel":"","category":"基础设施:公共设施:公共厕所","type":0,"location":{"lat":31.225198,"lng":121.445945},"_distance":372.19,"ad_info":{"adcode":310106,"province":"上海市","city":"上海市","district":"静安区"}},{"id":"8988047204711837355","title":"女洗手间(晶品)","address":"上海市静安区愚园路68号晶品L5层","tel":"","category":"基础设施:公共设施:公共厕所","type":0,"location":{"lat":31.225234,"lng":121.44592},"_distance":373.23,"ad_info":{"adcode":310106,"province":"上海市","city":"上海市","district":"静安区"}},{"id":"2041816811494896628","title":"男洗手间(晶品)","address":"上海市静安区胶州路与愚园路交叉口东北方向80米","tel":"","category":"基础设施:公共设施:公共厕所","type":0,"location":{"lat":31.225223,"lng":121.445939},"_distance":373.47,"ad_info":{"adcode":310106,"province":"上海市","city":"上海市","district":"静安区"}},{"id":"1735639079052295223","title":"女洗手间(晶品)","address":"上海市静安区愚园路68号晶品L4层","tel":"","category":"基础设施:公共设施:公共厕所","type":0,"location":{"lat":31.22528,"lng":121.44594},"_distance":313.87,"ad_info":{"adcode":310106,"province":"上海市","city":"上海市","district":"静安区"}},{"id":"6063474638093911505","title":"上海商城洗手间","address":"上海市静安区南京西路1376号(近西康路)","tel":"","category":"基础设施:公共设施:公共厕所","type":0,"location":{"lat":31.226539,"lng":121.45203},"_distance":404.89,"ad_info":{"adcode":310106,"province":"上海市","city":"上海市","district":"静安区"}},{"id":"11257560693295290638","title":"公共厕所","address":"上海市静安区武宁南路204","tel":"","category":"基础设施:公共设施:公共厕所","type":0,"location":{"lat":31.229447,"lng":121.43483},"_distance":606.4,"ad_info":{"adcode":310106,"province":"上海市","city":"上海市","district":"静安区"}},{"id":"8918510722591343321","title":"公共厕所(万春街)","address":"上海市静安区武定路1140-4西北方向40米","tel":"021-62774735","category":"基础设施:公共设施:公共厕所","type":0,"location":{"lat":31.22895,"lng":121.43835},"_distance":636.58,"ad_info":{"adcode":310106,"province":"上海市","city":"上海市","district":"静安区"}},{"id":"12725608001739654047","title":"889广场洗手间","address":"上海市静安区康定路与余姚路交叉口西南方向140米","tel":"","category":"基础设施:公共设施:公共厕所","type":0,"location":{"lat":31.228923,"lng":121.429602},"_distance":750.97,"ad_info":{"adcode":310106,"province":"上海市","city":"上海市","district":"静安区"}},{"id":"12407171224423875952","title":"公共厕所","address":"上海市静安区赵家桥路88号附近","tel":"","category":"基础设施:公共设施:公共厕所","type":0,"location":{"lat":31.22583,"lng":121.44544},"_distance":556.43,"ad_info":{"adcode":310106,"province":"上海市","city":"上海市","district":"静安区"}},{"id":"11835832608474114432","title":"公共厕所(晶品)","address":"上海市静安区胶州路与愚园路交叉口东北方向100米","tel":"","category":"基础设施:公共设施:公共厕所","type":0,"location":{"lat":31.225326,"lng":121.446045},"_distance":502.23,"ad_info":{"adcode":310106,"province":"上海市","city":"上海市","district":"静安区"}},{"id":"68979002454898701","title":"无障碍洗手间(晶品)","address":"上海市静安区愚园路68号晶品L1层","tel":"","category":"基础设施:公共设施:公共厕所","type":0,"location":{"lat":31.225828,"lng":121.446026},"_distance":520.04,"ad_info":{"adcode":310106,"province":"上海市","city":"上海市","district":"静安区"}},{"id":"4863815200225038697","title":"无障碍洗手间(上海宏安瑞士大酒店)","address":"上海市静安区愚园路1号","tel":"","category":"基础设施:公共设施:公共厕所","type":0,"location":{"lat":31.224734,"lng":121.447213},"_distance":141.36,"ad_info":{"adcode":310106,"province":"上海市","city":"上海市","district":"静安区"}},{"id":"17960988496326550063","title":"上海宏安瑞士大酒店洗手间","address":"上海市静安区愚园路1号","tel":"","category":"基础设施:公共设施:公共厕所","type":0,"location":{"lat":31.224931,"lng":121.447065},"_distance":145.17,"ad_info":{"adcode":310106,"province":"上海市","city":"上海市","district":"静安区"}},{"id":"11479659170231728755","title":"上海波特曼丽思卡尔顿酒店洗手间","address":"上海市静安区南京西路1376号","tel":"","category":"基础设施:公共设施:公共厕所","type":0,"location":{"lat":31.22715,"lng":121.45168},"_distance":351.87,"ad_info":{"adcode":310106,"province":"上海市","city":"上海市","district":"静安区"}},{"id":"15849911418305718037","title":"男洗手间(上海恒隆广场)","address":"上海市静安区南京西路与西康路交叉口东北方向110米","tel":"","category":"基础设施:公共设施:公共厕所","type":0,"location":{"lat":31.22769,"lng":121.453147},"_distance":418.62,"ad_info":{"adcode":310106,"province":"上海市","city":"上海市","district":"静安区"}},{"id":"16664711971014620626","title":"无障碍洗手间(恒隆广场)","address":"上海市静安区南京西路1266号B1","tel":"","category":"基础设施:公共设施:公共厕所","type":0,"location":{"lat":31.227782,"lng":121.453442},"_distance":424.15,"ad_info":{"adcode":310106,"province":"上海市","city":"上海市","district":"静安区"}},{"id":"17433849401415373887","title":"公共厕所(上海恒隆广场)","address":"上海市静安区南京西路与西康路交叉口东北方向100米","tel":"","category":"基础设施:公共设施:公共厕所","type":0,"location":{"lat":31.227739,"lng":121.45311},"_distance":424.74,"ad_info":{"adcode":310106,"province":"上海市","city":"上海市","district":"静安区"}},{"id":"4421723412655569726","title":"公共厕所","address":"上海市静安区万航渡路818号","tel":"","category":"基础设施:公共设施:公共厕所","type":0,"location":{"lat":31.228835,"lng":121.428216},"_distance":773.94,"ad_info":{"adcode":310106,"province":"上海市","city":"上海市","district":"静安区"}},{"id":"409083363711508139","title":"男洗手间(悦达889广场)","address":"上海市静安区万航渡路889号悦达889广场F4层","tel":"","category":"基础设施:公共设施:公共厕所","type":0,"location":{"lat":31.229459,"lng":121.428701},"_distance":777.95,"ad_info":{"adcode":310106,"province":"上海市","city":"上海市","district":"静安区"}},{"id":"15395886293388157495","title":"无障碍洗手间(悦达889广场)","address":"上海市静安区万航渡路889号悦达889广场F2层","tel":"","category":"基础设施:公共设施:公共厕所","type":0,"location":{"lat":31.229459,"lng":121.428701},"_distance":778.09,"ad_info":{"adcode":310106,"province":"上海市","city":"上海市","district":"静安区"}},{"id":"6093493193078917612","title":"无障碍洗手间(晶品)","address":"上海市静安区愚园路68号晶品L5层","tel":"","category":"基础设施:公共设施:公共厕所","type":0,"location":{"lat":31.225543,"lng":121.446662},"_distance":636.89,"ad_info":{"adcode":310106,"province":"上海市","city":"上海市","district":"静安区"}},{"id":"17786818022046089649","title":"无障碍洗手间(晶品)","address":"上海市静安区常德路与愚园路交叉口西北方向80米","tel":"","category":"基础设施:公共设施:公共厕所","type":0,"location":{"lat":31.225545,"lng":121.446669},"_distance":448.6,"ad_info":{"adcode":310106,"province":"上海市","city":"上海市","district":"静安区"}},{"id":"8835806628242416431","title":"女洗手间(晶品)","address":"上海市静安区常德路与赵家桥路交叉口西南方向70米","tel":"","category":"基础设施:公共设施:公共厕所","type":0,"location":{"lat":31.226013,"lng":121.446597},"_distance":271.45,"ad_info":{"adcode":310106,"province":"上海市","city":"上海市","district":"静安区"}},{"id":"1772744903880967228","title":"男洗手间(晶品)","address":"上海市静安区常德路与赵家桥路交叉口西南方向60米","tel":"","category":"基础设施:公共设施:公共厕所","type":0,"location":{"lat":31.226046,"lng":121.446583},"_distance":272.31,"ad_info":{"adcode":310106,"province":"上海市","city":"上海市","district":"静安区"}},{"id":"11867677455558565482","title":"公共厕所","address":"上海市静安区南阳路185","tel":"","category":"基础设施:公共设施:公共厕所","type":0,"location":{"lat":31.227624,"lng":121.450534},"_distance":296.55,"ad_info":{"adcode":310106,"province":"上海市","city":"上海市","district":"静安区"}},{"id":"18071194787756755074","title":"贝轩大公馆公共厕所","address":"上海市静安区南阳路226附近","tel":"","category":"基础设施:公共设施:公共厕所","type":0,"location":{"lat":31.227809,"lng":121.450898},"_distance":312.9,"ad_info":{"adcode":310106,"province":"上海市","city":"上海市","district":"静安区"}},{"id":"6672569387031228557","title":"无障碍洗手间(恒隆广场)","address":"上海市静安区南京西路1266号上海恒隆广场L3层","tel":"","category":"基础设施:公共设施:公共厕所","type":0,"location":{"lat":31.227837,"lng":121.453524},"_distance":319.57,"ad_info":{"adcode":310106,"province":"上海市","city":"上海市","district":"静安区"}},{"id":"12296072162671691552","title":"男卫生间(恒隆广场)","address":"上海市静安区南阳路与陕西北路交叉口西南方向90米","tel":"","category":"基础设施:公共设施:公共厕所","type":0,"location":{"lat":31.227934,"lng":121.453813},"_distance":335.51,"ad_info":{"adcode":310106,"province":"上海市","city":"上海市","district":"静安区"}},{"id":"9016744588741733471","title":"女洗手间(上海恒隆广场)","address":"上海市静安区南阳路与陕西北路交叉口西南方向90米","tel":"","category":"基础设施:公共设施:公共厕所","type":0,"location":{"lat":31.227956,"lng":121.45381},"_distance":337.99,"ad_info":{"adcode":310106,"province":"上海市","city":"上海市","district":"静安区"}},{"id":"8148782791346830254","title":"女洗手间(中信泰富广场)","address":"上海市静安区南京西路与陕西北路交叉口东北方向60米","tel":"","category":"基础设施:公共设施:公共厕所","type":0,"location":{"lat":31.227893,"lng":121.45532},"_distance":345.73,"ad_info":{"adcode":310106,"province":"上海市","city":"上海市","district":"静安区"}},{"id":"2109880124758694369","title":"男洗手间(中信泰富广场)","address":"上海市静安区南京西路与陕西北路交叉口东北方向70米","tel":"","category":"基础设施:公共设施:公共厕所","type":0,"location":{"lat":31.227918,"lng":121.455294},"_distance":347.27,"ad_info":{"adcode":310106,"province":"上海市","city":"上海市","district":"静安区"}},{"id":"1917175213139361346","title":"中信泰富广场洗手间","address":"上海市静安区南京西路与陕西北路交叉口西北方向60米","tel":"","category":"基础设施:公共设施:公共厕所","type":0,"location":{"lat":31.227951,"lng":121.455251},"_distance":349.39,"ad_info":{"adcode":310106,"province":"上海市","city":"上海市","district":"静安区"}},{"id":"5661051724177957415","title":"公共厕所","address":"上海市静安区昌平路1000","tel":"","category":"基础设施:公共设施:公共厕所","type":0,"location":{"lat":31.23274,"lng":121.43646},"_distance":763.2,"ad_info":{"adcode":310106,"province":"上海市","city":"上海市","district":"静安区"}},{"id":"6551078747477027171","title":"女洗手间(KiNG88)","address":"上海市长宁区长宁路与长寿路交叉口西南方向170米","tel":"","category":"基础设施:公共设施:公共厕所","type":0,"location":{"lat":31.227768,"lng":121.426925},"_distance":793.19,"ad_info":{"adcode":310105,"province":"上海市","city":"上海市","district":"长宁区"}},{"id":"14080548620934698780","title":"男洗手间(KiNG88)","address":"上海市长宁区长宁路与长寿路交叉口西南方向170米","tel":"","category":"基础设施:公共设施:公共厕所","type":0,"location":{"lat":31.227761,"lng":121.426875},"_distance":797.9,"ad_info":{"adcode":310105,"province":"上海市","city":"上海市","district":"长宁区"}},{"id":"11807656739276364901","title":"公共厕所(余姚路)","address":"上海市静安区余姚路453","tel":"","category":"基础设施:公共设施:公共厕所","type":0,"location":{"lat":31.233878,"lng":121.435505},"_distance":878.13,"ad_info":{"adcode":310106,"province":"上海市","city":"上海市","district":"静安区"}},{"id":"6992025704488419423","title":"公共厕所(中信泰富广场)","address":"上海市静安区南京西路与陕西北路交叉口东北方向80米","tel":"","category":"基础设施:公共设施:公共厕所","type":0,"location":{"lat":31.228043,"lng":121.455447},"_distance":325.15,"ad_info":{"adcode":310106,"province":"上海市","city":"上海市","district":"静安区"}},{"id":"4770376661577876344","title":"洗手间","address":"上海市静安区南阳路与陕西北路交叉口东南方向80米","tel":"","category":"基础设施:公共设施:公共厕所","type":0,"location":{"lat":31.228539,"lng":121.454826},"_distance":331.65,"ad_info":{"adcode":310106,"province":"上海市","city":"上海市","district":"静安区"}},{"id":"15576553634513227369","title":"金鹰国际购物中心(上海店)无障碍洗手间","address":"上海市静安区陕西北路278号金鹰国际购物中心F2","tel":"","category":"基础设施:公共设施:公共厕所","type":0,"location":{"lat":31.228278,"lng":121.455283},"_distance":333.96,"ad_info":{"adcode":310106,"province":"上海市","city":"上海市","district":"静安区"}},{"id":"11820566694583499136","title":"无障碍洗手间(KiNG88)","address":"上海市长宁区长宁路与万航渡路交叉口西南方向140米","tel":"","category":"基础设施:公共设施:公共厕所","type":0,"location":{"lat":31.228045,"lng":121.426891},"_distance":780.72,"ad_info":{"adcode":310105,"province":"上海市","city":"上海市","district":"长宁区"}},{"id":"3491042257622300338","title":"女洗手间(KiNG88)","address":"上海市长宁区长宁路88号KiNG88F1层","tel":"","category":"基础设施:公共设施:公共厕所","type":0,"location":{"lat":31.228023,"lng":121.426879},"_distance":781.1,"ad_info":{"adcode":310105,"province":"上海市","city":"上海市","district":"长宁区"}},{"id":"488805529722348853","title":"无障碍洗手间(KiNG88)","address":"上海市长宁区长宁路88号KiNG88F3层","tel":"","category":"基础设施:公共设施:公共厕所","type":0,"location":{"lat":31.227832,"lng":121.426837},"_distance":782.58,"ad_info":{"adcode":310105,"province":"上海市","city":"上海市","district":"长宁区"}},{"id":"7935798662347172731","title":"公共厕所","address":"上海市静安区安远路与叶家宅南路交叉口西南方向180米","tel":"","category":"基础设施:公共设施:公共厕所","type":0,"location":{"lat":31.23377,"lng":121.43193},"_distance":847.33,"ad_info":{"adcode":310106,"province":"上海市","city":"上海市","district":"静安区"}},{"id":"1046293847532420066","title":"无障碍洗手间(上海瑞慈水仙妇儿医院)","address":"上海市静安区北京西路1314号1层","tel":"","category":"基础设施:公共设施:公共厕所","type":0,"location":{"lat":31.228951,"lng":121.449162},"_distance":299.53,"ad_info":{"adcode":310106,"province":"上海市","city":"上海市","district":"静安区"}},{"id":"12964002141349091881","title":"无障碍洗手间(上海瑞慈水仙妇儿医院)","address":"上海市静安区北京西路1314号2层","tel":"","category":"基础设施:公共设施:公共厕所","type":0,"location":{"lat":31.229008,"lng":121.449131},"_distance":301.73,"ad_info":{"adcode":310106,"province":"上海市","city":"上海市","district":"静安区"}},{"id":"1489461336156964016","title":"无障碍洗手间(上海瑞慈水仙妇儿医院)","address":"上海市静安区北京西路1314号3F","tel":"","category":"基础设施:公共设施:公共厕所","type":0,"location":{"lat":31.229125,"lng":121.449477},"_distance":334.15,"ad_info":{"adcode":310106,"province":"上海市","city":"上海市","district":"静安区"}},{"id":"3624755714951600083","title":"无障碍洗手间(门诊部)","address":"上海市静安区西康路与新闸路交叉口东南方向90米","tel":"","category":"基础设施:公共设施:公共厕所","type":0,"location":{"lat":31.230473,"lng":121.450132},"_distance":395.26,"ad_info":{"adcode":310106,"province":"上海市","city":"上海市","district":"静安区"}},{"id":"9218653596366591035","title":"无障碍洗手间(梅龙镇广场)","address":"上海市静安区南京西路1038号梅龙镇广场F2层","tel":"","category":"基础设施:公共设施:公共厕所","type":0,"location":{"lat":31.229025,"lng":121.456645},"_distance":413.34,"ad_info":{"adcode":310106,"province":"上海市","city":"上海市","district":"静安区"}},{"id":"1642133714575567699","title":"无障碍洗手间(梅龙镇广场)","address":"上海市静安区南京西路1038号梅龙镇广场F1层","tel":"","category":"基础设施:公共设施:公共厕所","type":0,"location":{"lat":31.228929,"lng":121.456836},"_distance":344.63,"ad_info":{"adcode":310106,"province":"上海市","city":"上海市","district":"静安区"}},{"id":"9924006165179414710","title":"女洗手间(KiNG88)","address":"上海市长宁区长宁路与长寿路交叉口西南方向110米","tel":"","category":"基础设施:公共设施:公共厕所","type":0,"location":{"lat":31.228448,"lng":121.426853},"_distance":777.23,"ad_info":{"adcode":310105,"province":"上海市","city":"上海市","district":"长宁区"}},{"id":"13771812378363495493","title":"洗手间","address":"上海市静安区常德路778号102商铺","tel":"","category":"基础设施:公共设施:公共厕所","type":0,"location":{"lat":31.233022,"lng":121.442942},"_distance":865.61,"ad_info":{"adcode":310106,"province":"上海市","city":"上海市","district":"静安区"}},{"id":"14289561018661539896","title":"无障碍洗手间(静安中心医院)","address":"上海市静安区西康路259号2号楼11F","tel":"","category":"基础设施:公共设施:公共厕所","type":0,"location":{"lat":31.230613,"lng":121.44929},"_distance":427.3,"ad_info":{"adcode":310106,"province":"上海市","city":"上海市","district":"静安区"}},{"id":"12627383184388373286","title":"无障碍洗手间(静安中心医院)","address":"上海市静安区西康路259号2号楼9层","tel":"","category":"基础设施:公共设施:公共厕所","type":0,"location":{"lat":31.230586,"lng":121.449354},"_distance":364.87,"ad_info":{"adcode":310106,"province":"上海市","city":"上海市","district":"静安区"}},{"id":"2396533996965539082","title":"无障碍洗手间(静安中心医院)","address":"上海市静安区西康路259号14层","tel":"","category":"基础设施:公共设施:公共厕所","type":0,"location":{"lat":31.230592,"lng":121.449364},"_distance":365.99,"ad_info":{"adcode":310106,"province":"上海市","city":"上海市","district":"静安区"}},{"id":"3807573909596694410","title":"无障碍洗手间(静安中心医院)","address":"上海市静安区西康路259号5层","tel":"","category":"基础设施:公共设施:公共厕所","type":0,"location":{"lat":31.230598,"lng":121.449374},"_distance":317.36,"ad_info":{"adcode":310106,"province":"上海市","city":"上海市","district":"静安区"}},{"id":"11516931211795776880","title":"无障碍洗手间(静安中心医院)","address":"上海市静安区西康路259号2号楼17F","tel":"","category":"基础设施:公共设施:公共厕所","type":0,"location":{"lat":31.230629,"lng":121.449317},"_distance":318.42,"ad_info":{"adcode":310106,"province":"上海市","city":"上海市","district":"静安区"}},{"id":"13443608139858814150","title":"无障碍洗手间(静安中心医院)","address":"上海市静安区西康路259号2号楼8层","tel":"","category":"基础设施:公共设施:公共厕所","type":0,"location":{"lat":31.230628,"lng":121.449333},"_distance":318.8,"ad_info":{"adcode":310106,"province":"上海市","city":"上海市","district":"静安区"}},{"id":"7417116195627115628","title":"无障碍洗手间(静安中心医院)","address":"上海市静安区西康路259号10层","tel":"","category":"基础设施:公共设施:公共厕所","type":0,"location":{"lat":31.23061,"lng":121.449383},"_distance":292.81,"ad_info":{"adcode":310106,"province":"上海市","city":"上海市","district":"静安区"}},{"id":"1581918402626525569","title":"无障碍洗手间(静安中心医院)","address":"上海市静安区西康路259号2号楼18F","tel":"","category":"基础设施:公共设施:公共厕所","type":0,"location":{"lat":31.23062,"lng":121.449398},"_distance":293.96,"ad_info":{"adcode":310106,"province":"上海市","city":"上海市","district":"静安区"}},{"id":"15989278540137015626","title":"无障碍洗手间(静安中心医院)","address":"上海市静安区西康路259号2号楼12F","tel":"","category":"基础设施:公共设施:公共厕所","type":0,"location":{"lat":31.230628,"lng":121.449381},"_distance":294.62,"ad_info":{"adcode":310106,"province":"上海市","city":"上海市","district":"静安区"}},{"id":"13429192110619606852","title":"无障碍洗手间(静安中心医院)","address":"上海市静安区西康路259号2号楼7F","tel":"","category":"基础设施:公共设施:公共厕所","type":0,"location":{"lat":31.23057,"lng":121.450155},"_distance":286.41,"ad_info":{"adcode":310106,"province":"上海市","city":"上海市","district":"静安区"}},{"id":"12520668613508804809","title":"无障碍洗手间(静安中心医院)","address":"上海市静安区西康路259号2号楼16F","tel":"","category":"基础设施:公共设施:公共厕所","type":0,"location":{"lat":31.23058,"lng":121.450126},"_distance":287.33,"ad_info":{"adcode":310106,"province":"上海市","city":"上海市","district":"静安区"}},{"id":"811879827464498083","title":"无障碍洗手间(静安中心医院)","address":"上海市静安区西康路259号15层","tel":"","category":"基础设施:公共设施:公共厕所","type":0,"location":{"lat":31.230585,"lng":121.450062},"_distance":287.77,"ad_info":{"adcode":310106,"province":"上海市","city":"上海市","district":"静安区"}},{"id":"662189383285971534","title":"公共厕所(梅龙镇广场)","address":"上海市静安区奉贤路与南汇路交叉口西南方向50米","tel":"","category":"基础设施:公共设施:公共厕所","type":0,"location":{"lat":31.229343,"lng":121.45657},"_distance":371.3,"ad_info":{"adcode":310106,"province":"上海市","city":"上海市","district":"静安区"}},{"id":"6460807744618928288","title":"男洗手间(梅龙镇广场)","address":"上海市静安区奉贤路与南汇路交叉口西南方向50米","tel":"","category":"基础设施:公共设施:公共厕所","type":0,"location":{"lat":31.229307,"lng":121.45681},"_distance":304.27,"ad_info":{"adcode":310106,"province":"上海市","city":"上海市","district":"静安区"}}]